[
    {
        "name": "MR. BRICOLAGE",
        "add_1": "RUE DES HALLES",
        "add_2": 0,
        "cp": 45000,
        "city": "ORLEANS",
        "lng": "1,9068900",
        "lat": "47,8985000",
        "place_type": 1
    },
    {
        "name": "BRICONAUTES",
        "add_1": "C C DU RIBERAL",
        "add_2": 0,
        "cp": 66130,
        "city": "ILLE SUR TET",
        "lng": 0,
        "lat": 0,
        "place_type": 0
    },
    {
        "name": "BRICO DEPOT",
        "add_1": "CC ELDORADO",
        "add_2": "RTE D'ARGENT",
        "cp": 12740,
        "city": "SEBAZAC CONCOURES",
        "lng": "2,6092000",
        "lat": "44,4005000",
        "place_type": 1
    },
    {
        "name": "BRICONAUTES",
        "add_1": "ZA DE L'ORME",
        "add_2": "7 RUE DE L'INDUSTRIE",
        "cp": 35730,
        "city": "PLEURTUIT",
        "lng": "-2,0568000",
        "lat": "48,5734000",
        "place_type": 0
    },
    {
        "name": "CASTORAMA",
        "add_1": "58 RUE PASTEUR",
        "add_2": 0,
        "cp": 69780,
        "city": "ST PIERRE DE CHANDIEU",
        "lng": "4,9763600",
        "lat": "45,6689000",
        "place_type": 1
    },
    {
        "name": "BRICONAUTES",
        "add_1": "QUARTIER ST ROCH",
        "add_2": "223 AVENUE JEAN MOULIN",
        "cp": 83490,
        "city": "LE MUY",
        "lng": "6,5613200",
        "lat": "43,4728000",
        "place_type": 0
    },
    {
        "name": "WELDOM",
        "add_1": "LA CLAPIÈRE",
        "add_2": "RTE DE LA CLAPIÈRE",
        "cp": 5200,
        "city": "EMBRUN",
        "lng": "6,4841900",
        "lat": "44,5518000",
        "place_type": 1
    },
    {
        "name": "MR. BRICOLAGE",
        "add_1": "3 AV DU MARÉCHAL DE LATTRE DE TASS",
        "add_2": 0,
        "cp": 13210,
        "city": "ST REMY DE PROVENCE",
        "lng": "4,8355200",
        "lat": "43,7925000",
        "place_type": 0
    },
    {
        "name": "BRICO DEPOT",
        "add_1": "ZI DU SOUSSON",
        "add_2": "LIEU DIT AU SOUSSON",
        "cp": 32500,
        "city": "PAVIE",
        "lng": 0,
        "lat": 0,
        "place_type": 1
    },
    {
        "name": "BRICONAUTES",
        "add_1": "75 AV DES SPORTS",
        "add_2": 0,
        "cp": 44410,
        "city": "HERBIGNAC",
        "lng": "-2,3293000",
        "lat": "47,4426000",
        "place_type": 0
    },
    {
        "name": "MR. BRICOLAGE",
        "add_1": "ROUTE DE KANFEN",
        "add_2": 0,
        "cp": 57330,
        "city": "HETTANGE GRANDE",
        "lng": "6,1342600",
        "lat": "49,4212000",
        "place_type": 1
    },
    {
        "name": "MR. BRICOLAGE",
        "add_1": "67 BOULEVARD DE L EUROPE",
        "add_2": 0,
        "cp": 67210,
        "city": "OBERNAI",
        "lng": "7,4958100",
        "lat": "48,4668000",
        "place_type": 0
    },
    {
        "name": "BRICO DEPOT",
        "add_1": "4 ROUTE DE SAINT LEU",
        "add_2": 0,
        "cp": 93430,
        "city": "VILLETANEUSE",
        "lng": "2,3448800",
        "lat": "48,9473000",
        "place_type": 1
    },
    {
        "name": "BRICOMARCHE",
        "add_1": "RD 652",
        "add_2": "ROUTE DE SEIGNOSSE",
        "cp": 40150,
        "city": "SOORTS HOSSEGOR",
        "lng": "-1,3935000",
        "lat": "43,6644000",
        "place_type": 0
    },
    {
        "name": "BRICO E. LECLERC",
        "add_1": "ZAC DU MALLOY",
        "add_2": "32 AVENUE DU GÉNÉRAL LECLERC",
        "cp": 10200,
        "city": "BAR SUR AUBE",
        "lng": "4,6994200",
        "lat": "48,2392000",
        "place_type": 1
    },
    {
        "name": "BRICOMARCHE",
        "add_1": "ROUTE DU VERNOY",
        "add_2": 0,
        "cp": 89130,
        "city": "TOUCY",
        "lng": "3,3135400",
        "lat": "47,7264000",
        "place_type": 0
    },
    {
        "name": "BRICO DEPOT",
        "add_1": "BEL AIR",
        "add_2": 0,
        "cp": 17230,
        "city": "ANDILLY",
        "lng": 0,
        "lat": 0,
        "place_type": 1
    },
    {
        "name": "BRICO E. LECLERC",
        "add_1": "C C ENSEMBLE COMMERCIAL",
        "add_2": "RUE GEORGES CLÉMENCEAU",
        "cp": 39300,
        "city": "CHAMPAGNOLE",
        "lng": "5,9182800",
        "lat": "46,7451000",
        "place_type": 0
    },
    {
        "name": "WELDOM",
        "add_1": "QUARTIER DU BAOU",
        "add_2": "ROUTE NATIONALE 113",
        "cp": 13127,
        "city": "VITROLLES",
        "lng": "5,2593300",
        "lat": "43,4308000",
        "place_type": 1
    },
    {
        "name": "MR. BRICOLAGE",
        "add_1": "13 BD VICTOR DUHAMEL",
        "add_2": 0,
        "cp": 78200,
        "city": "MANTES LA JOLIE",
        "lng": "1,7170400",
        "lat": "48,9852000",
        "place_type": 0
    }
]