[
    {
        "name": "tessier ecouflant",
        "add_1": "boulevard de l'eperviere",
        "add_2": "zone d'activite de beuzon",
        "cp": 49000,
        "city": "ecouflant",
        "lng": -0.5059000,
        "lat": 47.5063000,
        "place_type": 1
    },
    {
        "name": "yesss nevers",
        "add_1": "zone industrielle de saint eloi",
        "add_2": 0,
        "cp": 58000,
        "city": "saint eloi",
        "lng": 3.1628450,
        "lat": 46.9908960,
        "place_type": 0
    },
    {
        "name": "yesss chatillon",
        "add_1": "20 rue louveau",
        "add_2": 0,
        "cp": 92320,
        "city": "chatillon",
        "lng": 2.2937400,
        "lat": 48.8023000,
        "place_type": 1
    },
    {
        "name": "yesss saintes",
        "add_1": "25 rue du chemin ferre",
        "add_2": 0,
        "cp": 17100,
        "city": "saintes",
        "lng": -0.6638000,
        "lat": 45.7448000,
        "place_type": 0
    },
    {
        "name": "sct libourne",
        "add_1": "z.i. de la balastiere",
        "add_2": "3 rue de l' industrie",
        "cp": 33500,
        "city": "libourne",
        "lng": -0.2352000,
        "lat": 44.9437000,
        "place_type": 1
    },
    {
        "name": "tereva barbezieux",
        "add_1": "2 route de chalais",
        "add_2": 0,
        "cp": 16300,
        "city": "barbezieux",
        "lng": -0.1519000,
        "lat": 45.4627000,
        "place_type": 0
    },
    {
        "name": "tereva montdemars",
        "add_1": "rue de la ferme de larrouquere",
        "add_2": "zone industrielle de larrouquere",
        "cp": 40000,
        "city": "mont de marsan",
        "lng": -0.4604000,
        "lat": 43.9093000,
        "place_type": 1
    },
    {
        "name": "coaxel pertuis",
        "add_1": "rue benjamin franklin",
        "add_2": "zac st martin",
        "cp": 84120,
        "city": "pertuis",
        "lng": 5.5043900,
        "lat": 43.6808000,
        "place_type": 0
    },
    {
        "name": "sct argeles",
        "add_1": "1 rue des piverts",
        "add_2": "za",
        "cp": 66700,
        "city": "argeles sur mer",
        "lng": 3.0146600,
        "lat": 42.5502000,
        "place_type": 1
    },
    {
        "name": "cobatri gond pontouvre",
        "add_1": "impasse des machenaudes",
        "add_2": "zone industrielle n 3 impasse",
        "cp": 16160,
        "city": "gond pontouvre",
        "lng": 0.1731300,
        "lat": 45.6677000,
        "place_type": 0
    },
    {
        "name": "yesss manosque",
        "add_1": "zi de st joseph",
        "add_2": "rue du preche",
        "cp": 4100,
        "city": "manosque",
        "lng": 5.7939300,
        "lat": 43.8261000,
        "place_type": 1
    },
    {
        "name": "rexel creil",
        "add_1": "41 rue benoit frachon",
        "add_2": 0,
        "cp": 60740,
        "city": "saint maximin",
        "lng": 2.4626200,
        "lat": 49.2385000,
        "place_type": 1
    },
    {
        "name": "comet stjeanbray",
        "add_1": "81 avenue denis papin",
        "add_2": 0,
        "cp": 45800,
        "city": "saint jean de braye",
        "lng": 1.9500500,
        "lat": 47.9156000,
        "place_type": 0
    },
    {
        "name": "cged toulouse n",
        "add_1": "75 rue edmond rostand",
        "add_2": "agence toulouse nord",
        "cp": 31200,
        "city": "toulouse",
        "lng": 1.4570700,
        "lat": 43.6440000,
        "place_type": 1
    },
    {
        "name": "rexel quimper hi",
        "add_1": "zone industrielle de l hippodrome",
        "add_2": "11 route de coray",
        "cp": 29000,
        "city": "quimper",
        "lng": -4.0698000,
        "lat": 47.9941000,
        "place_type": 0
    },
    {
        "name": "yesss valenton",
        "add_1": "zac du champs saint julien",
        "add_2": "rue henri moissan",
        "cp": 94460,
        "city": "valenton",
        "lng": 2.4554200,
        "lat": 48.7509000,
        "place_type": 1
    },
    {
        "name": "auschitzky pessac",
        "add_1": "1 rue d' arsonval",
        "add_2": 0,
        "cp": 33600,
        "city": "pessac",
        "lng": -0.6562000,
        "lat": 44.7787000,
        "place_type": 0
    },
    {
        "name": "derd marseille",
        "add_1": "38 avenue de la timone",
        "add_2": 0,
        "cp": 13010,
        "city": "marseille",
        "lng": 5.4008700,
        "lat": 43.2855000,
        "place_type": 1
    },
    {
        "name": "rexel andrezieux",
        "add_1": "rue edouard garet",
        "add_2": "zac des communaux. srp sud",
        "cp": 42160,
        "city": "andrezieux boutheon",
        "lng": 4.2859600,
        "lat": 45.5321000,
        "place_type": 0
    },
    {
        "name": "rexel bayeux",
        "add_1": "route de caen  rd 94a",
        "add_2": 0,
        "cp": 14400,
        "city": "bayeux",
        "lng": -0.6855000,
        "lat": 49.2720000,
        "place_type": 1
    },
    {
        "name": "yesss lepuy",
        "add_1": "chemin de farnier",
        "add_2": 0,
        "cp": 43700,
        "city": "brives charensac",
        "lng": 3.9075600,
        "lat": 45.0482000,
        "place_type": 0
    },
    {
        "name": "etincelle stmaur",
        "add_1": "5 boulevard de creteil",
        "add_2": 0,
        "cp": 94100,
        "city": "saint maur des fosses",
        "lng": 2.4732900,
        "lat": 48.7991000,
        "place_type": 1
    },
    {
        "name": "rexel pf nantes",
        "add_1": "23 boulevard victor hugo",
        "add_2": "cs 80203",
        "cp": 44202,
        "city": "nantes cedex 2",
        "lng": -1.5522000,
        "lat": 47.2042000,
        "place_type": 0
    },
    {
        "name": "yesss nantes o",
        "add_1": "314 bd marcel paul",
        "add_2": "bp 70371",
        "cp": 44816,
        "city": "st herblain cedex",
        "lng": -1.6367000,
        "lat": 47.2271000,
        "place_type": 1
    },
    {
        "name": "balitrand nice est",
        "add_1": "21 boulevard de l ariane",
        "add_2": 0,
        "cp": 6300,
        "city": "nice",
        "lng": 7.3032100,
        "lat": 43.7435000,
        "place_type": 0
    },
    {
        "name": "yesss rouen r.d.",
        "add_1": "rue des jardiniers",
        "add_2": "za des 2 rivieres",
        "cp": 76000,
        "city": "rouen",
        "lng": 1.1353000,
        "lat": 49.4371000,
        "place_type": 1
    },
    {
        "name": "yesss wissous",
        "add_1": "17 bld arago",
        "add_2": "zi villemilan",
        "cp": 91320,
        "city": "wissous",
        "lng": 2.3172300,
        "lat": 48.7280000,
        "place_type": 0
    },
    {
        "name": "malrieu gourdon",
        "add_1": "les millepoises",
        "add_2": 0,
        "cp": 46300,
        "city": "le vigan",
        "lng": 1.4387950,
        "lat": 44.7413410,
        "place_type": 1
    },
    {
        "name": "rexel pithiviers",
        "add_1": "rue olympe de gouges",
        "add_2": "zac de senives",
        "cp": 45300,
        "city": "pithiviers",
        "lng": 2.2523600,
        "lat": 48.1882000,
        "place_type": 0
    },
    {
        "name": "tereva saintes",
        "add_1": ".rue de la mission",
        "add_2": "zac des coteaux",
        "cp": 17810,
        "city": "saint georges des coteaux",
        "lng": -0.6747000,
        "lat": 45.7517000,
        "place_type": 1
    },
    {
        "name": "yesss mulhouse",
        "add_1": "7 rue du bigarreau",
        "add_2": "za du kaligone",
        "cp": 68260,
        "city": "kingersheim",
        "lng": 7.3059400,
        "lat": 47.7904000,
        "place_type": 0
    },
    {
        "name": "electis haguenau",
        "add_1": "zi ouest secteur zinsel",
        "add_2": "22 place du geisselbronn",
        "cp": 67590,
        "city": "schweighouse sur moder",
        "lng": 7.7408900,
        "lat": 48.8318000,
        "place_type": 1
    },
    {
        "name": "yesss colomiers",
        "add_1": "9 ch de la salvetat",
        "add_2": "zi en jacca",
        "cp": 31770,
        "city": "colomiers",
        "lng": 1.3113300,
        "lat": 43.6051000,
        "place_type": 0
    },
    {
        "name": "cefb clichy",
        "add_1": "21 b rue mederic",
        "add_2": 0,
        "cp": 92110,
        "city": "clichy la garenne",
        "lng": 2.3007200,
        "lat": 48.9049000,
        "place_type": 1
    },
    {
        "name": "cefb paris9",
        "add_1": "30, rue de londres",
        "add_2": 0,
        "cp": 75009,
        "city": "paris 09",
        "lng": 2.3279700,
        "lat": 48.8776000,
        "place_type": 0
    },
    {
        "name": "yonnelec provins",
        "add_1": "5 route de champbenoist",
        "add_2": 0,
        "cp": 77160,
        "city": "provins",
        "lng": 3.3033600,
        "lat": 48.5552000,
        "place_type": 1
    },
    {
        "name": "rexel evry",
        "add_1": "42-44 rue du cantal ce 1819",
        "add_2": "zi de la petite montagne sud",
        "cp": 91090,
        "city": "evry",
        "lng": 2.4302700,
        "lat": 48.6226000,
        "place_type": 0
    },
    {
        "name": "sct orthez",
        "add_1": "18, avenue pesque",
        "add_2": "zone industrielle des saligues",
        "cp": 64300,
        "city": "orthez",
        "lng": -0.7685000,
        "lat": 43.4823000,
        "place_type": 1
    },
    {
        "name": "omnielect brive",
        "add_1": "20 avenue de la garenne verte",
        "add_2": 0,
        "cp": 19100,
        "city": "brive la gaillarde",
        "lng": 1.5522500,
        "lat": 45.1593000,
        "place_type": 0
    },
    {
        "name": "yesss moulins",
        "add_1": "11 rue denis papin",
        "add_2": 0,
        "cp": 3000,
        "city": "moulins",
        "lng": 3.3414800,
        "lat": 46.5656000,
        "place_type": 1
    },
    {
        "name": "yesss elbeuf",
        "add_1": "247 rue felix faure",
        "add_2": 0,
        "cp": 76320,
        "city": "caudebec les elbeuf",
        "lng": 1.0341900,
        "lat": 49.2888000,
        "place_type": 0
    },
    {
        "name": "cdl elec stsenier",
        "add_1": "zone artisanale du pont gandouin",
        "add_2": "route de mortain",
        "cp": 50300,
        "city": "saint senier sous avranches",
        "lng": -1.3353000,
        "lat": 48.6862000,
        "place_type": 1
    },
    {
        "name": "cged arles",
        "add_1": "zi nord",
        "add_2": "rue nicolas copernic",
        "cp": 13200,
        "city": "arles",
        "lng": 4.6341200,
        "lat": 43.7028000,
        "place_type": 0
    },
    {
        "name": "rexel champigny",
        "add_1": "91 rue marcel paul",
        "add_2": "za des grands godets",
        "cp": 94430,
        "city": "champigny sur marne",
        "lng": 2.5272900,
        "lat": 48.8128000,
        "place_type": 1
    },
    {
        "name": "selectro chatillon",
        "add_1": "79 avenue de la republique",
        "add_2": 0,
        "cp": 92320,
        "city": "chatillon sous bagneux",
        "lng": 2.2971400,
        "lat": 48.8031000,
        "place_type": 0
    },
    {
        "name": "etincelle malakoff",
        "add_1": "19  rue voltaire",
        "add_2": "b p  55",
        "cp": 92242,
        "city": "malakoff cedex",
        "lng": 2.3096300,
        "lat": 48.8230000,
        "place_type": 1
    },
    {
        "name": "cefb paris15",
        "add_1": "24, rue la quintinie",
        "add_2": 0,
        "cp": 75015,
        "city": "paris 15",
        "lng": 2.3046000,
        "lat": 48.8384000,
        "place_type": 0
    },
    {
        "name": "vds palaiseau",
        "add_1": "6/8, rue ambroise croizat",
        "add_2": 0,
        "cp": 91873,
        "city": "palaiseau cedex",
        "lng": 2.2555800,
        "lat": 48.7131000,
        "place_type": 1
    },
    {
        "name": "cged wissous",
        "add_1": "zi de villemilan",
        "add_2": "33, ave ampere",
        "cp": 91320,
        "city": "wissous",
        "lng": 2.3179200,
        "lat": 48.7275000,
        "place_type": 0
    },
    {
        "name": "rexel troyes",
        "add_1": "50 ter av jean jaures",
        "add_2": "bp 29",
        "cp": 10600,
        "city": "la chapelle st luc",
        "lng": 4.0333000,
        "lat": 48.3136000,
        "place_type": 1
    },
    {
        "name": "tereva pontarlier",
        "add_1": "zac des grands planchants",
        "add_2": "rue pierre dechanet",
        "cp": 25300,
        "city": "pontarlier",
        "lng": 6.3331700,
        "lat": 46.9044000,
        "place_type": 0
    },
    {
        "name": "cged lavaupalie",
        "add_1": "5 rue francois arago",
        "add_2": "za les portes de l ouest",
        "cp": 76150,
        "city": "la vaupaliere",
        "lng": 1.0137100,
        "lat": 49.4820000,
        "place_type": 1
    },
    {
        "name": "siehr mundolshei",
        "add_1": "3a rue vauban",
        "add_2": 0,
        "cp": 67450,
        "city": "mundolsheim",
        "lng": 7.7156200,
        "lat": 48.6356000,
        "place_type": 0
    },
    {
        "name": "cefb paris13",
        "add_1": "41, rue de domremy",
        "add_2": 0,
        "cp": 75013,
        "city": "paris 13",
        "lng": 2.3705400,
        "lat": 48.8289000,
        "place_type": 1
    },
    {
        "name": "rexel arcueil",
        "add_1": "31, 33, avenue aristide briand",
        "add_2": "31 av aristide briand",
        "cp": 94110,
        "city": "arcueil",
        "lng": 2.3266300,
        "lat": 48.8089000,
        "place_type": 0
    },
    {
        "name": "cefb aubervilli",
        "add_1": "61, rue du landy",
        "add_2": "bat. b",
        "cp": 93300,
        "city": "aubervilliers",
        "lng": 2.3680700,
        "lat": 48.9153000,
        "place_type": 1
    },
    {
        "name": "lumi metal morangis",
        "add_1": "10 rue des froides bouillies",
        "add_2": "zi nord",
        "cp": 91420,
        "city": "morangis",
        "lng": 2.3464800,
        "lat": 48.7075000,
        "place_type": 0
    },
    {
        "name": "cefb morigny",
        "add_1": "21, rue des rochettes",
        "add_2": "zi des rochettes",
        "cp": 91150,
        "city": "morigny champigny",
        "lng": 2.1714400,
        "lat": 48.4574000,
        "place_type": 1
    },
    {
        "name": "balitrand draguignan",
        "add_1": "61 boulevard saint exupery",
        "add_2": 0,
        "cp": 83300,
        "city": "draguignan",
        "lng": 6.4634200,
        "lat": 43.5229000,
        "place_type": 0
    },
    {
        "name": "caillot ambert",
        "add_1": "14 rue de la masse",
        "add_2": 0,
        "cp": 63600,
        "city": "ambert",
        "lng": 3.7362900,
        "lat": 45.5416000,
        "place_type": 1
    },
    {
        "name": "lumi metal cachan",
        "add_1": "72, avenue carnot",
        "add_2": 0,
        "cp": 94230,
        "city": "cachan",
        "lng": 2.3237000,
        "lat": 48.7998000,
        "place_type": 0
    },
    {
        "name": "mabeo morangis",
        "add_1": "avenue blaise pascal",
        "add_2": "zone industrielle sud",
        "cp": 91420,
        "city": "morangis",
        "lng": 2.3343800,
        "lat": 48.6960000,
        "place_type": 1
    },
    {
        "name": "real stehelene",
        "add_1": "alpespace",
        "add_2": "480-510 voie galilee",
        "cp": 73800,
        "city": "sainte helene du lac",
        "lng": 6.0406600,
        "lat": 45.4812000,
        "place_type": 0
    },
    {
        "name": "yesss orleans",
        "add_1": "32 rue des freres lumiere",
        "add_2": "zac des chateliers",
        "cp": 45800,
        "city": "st jean de braye",
        "lng": 1.9459100,
        "lat": 47.9227000,
        "place_type": 1
    },
    {
        "name": "cbs landivisia",
        "add_1": "28 rue charles le goffic",
        "add_2": 0,
        "cp": 29400,
        "city": "landivisiau",
        "lng": -4.0805000,
        "lat": 48.5169000,
        "place_type": 0
    },
    {
        "name": "nollet antony",
        "add_1": "9 avenue leon harmel",
        "add_2": 0,
        "cp": 92160,
        "city": "antony",
        "lng": 2.3125800,
        "lat": 48.7368000,
        "place_type": 1
    },
    {
        "name": "rexel fresnes",
        "add_1": "2 rue de chevilly",
        "add_2": 0,
        "cp": 94260,
        "city": "fresnes",
        "lng": 2.3330800,
        "lat": 48.7596000,
        "place_type": 0
    },
    {
        "name": "rexel meaux",
        "add_1": "rue jehan de brie",
        "add_2": "zi nord",
        "cp": 77100,
        "city": "meaux",
        "lng": 2.9019200,
        "lat": 48.9655000,
        "place_type": 1
    },
    {
        "name": "cged meaux",
        "add_1": "4 rue de la bauve",
        "add_2": "zi nord",
        "cp": 77100,
        "city": "meaux",
        "lng": 2.9093100,
        "lat": 48.9635000,
        "place_type": 0
    },
    {
        "name": "cefb montereau",
        "add_1": "zi montereau",
        "add_2": "13 rue des clomarts",
        "cp": 77130,
        "city": "montereau",
        "lng": 2.9679300,
        "lat": 48.3877000,
        "place_type": 1
    },
    {
        "name": "cefb virychatil",
        "add_1": "rue de ris",
        "add_2": "zi des noues de seine",
        "cp": 91170,
        "city": "viry chatillon",
        "lng": 2.3919600,
        "lat": 48.6744000,
        "place_type": 0
    },
    {
        "name": "yesss evry",
        "add_1": "5, rue du velay",
        "add_2": "zi de la petite montagne sud",
        "cp": 91090,
        "city": "lisses evry",
        "lng": 2.4300100,
        "lat": 48.6103000,
        "place_type": 1
    },
    {
        "name": "tabur stnazaire",
        "add_1": "118 rue henri gauthier",
        "add_2": 0,
        "cp": 44550,
        "city": "montoir de bretagne",
        "lng": -2.1766000,
        "lat": 47.3087000,
        "place_type": 0
    },
    {
        "name": "coaxel annecy",
        "add_1": "60 route des rutys",
        "add_2": 0,
        "cp": 74370,
        "city": "pringy",
        "lng": 6.1265100,
        "lat": 45.9440000,
        "place_type": 1
    },
    {
        "name": "yesss caen",
        "add_1": "rue jean monnet",
        "add_2": "zac de lazzaro",
        "cp": 14460,
        "city": "colombelles",
        "lng": -0.2928000,
        "lat": 49.1956000,
        "place_type": 0
    },
    {
        "name": "rexel lacourneuv",
        "add_1": "75/79 rue rateau",
        "add_2": "zone industrielle rateau",
        "cp": 93120,
        "city": "la courneuve",
        "lng": 2.4049400,
        "lat": 48.9249000,
        "place_type": 1
    },
    {
        "name": "cefb evry",
        "add_1": "zi petite montagne sud",
        "add_2": "17/21 allee du dauphine",
        "cp": 91090,
        "city": "lisses-evry",
        "lng": 2.4267600,
        "lat": 48.6114000,
        "place_type": 0
    },
    {
        "name": "comet montereau",
        "add_1": "13 rue de la grande haie",
        "add_2": 0,
        "cp": 77130,
        "city": "montereau fault yonne",
        "lng": 2.9719600,
        "lat": 48.3853000,
        "place_type": 1
    },
    {
        "name": "gerama lemans",
        "add_1": "rd 23",
        "add_2": "le champ du chataigner",
        "cp": 72210,
        "city": "voivres les le mans",
        "lng": 0.1072003,
        "lat": 47.9336706,
        "place_type": 0
    },
    {
        "name": "rexel arles",
        "add_1": "zone industrielle nord",
        "add_2": "rue aimee et eugenie cotton",
        "cp": 13200,
        "city": "arles",
        "lng": 4.6361700,
        "lat": 43.7029000,
        "place_type": 1
    },
    {
        "name": "cso sarlat",
        "add_1": "lieu dit le pontet",
        "add_2": 0,
        "cp": 24200,
        "city": "sarlat la caneda",
        "lng": 1.2477200,
        "lat": 44.8664000,
        "place_type": 0
    },
    {
        "name": "rexel valenton",
        "add_1": "4 rue de la ferme de la tour",
        "add_2": "4 6 zac du val pompadour 2",
        "cp": 94460,
        "city": "valenton",
        "lng": 2.4432000,
        "lat": 48.7702000,
        "place_type": 1
    },
    {
        "name": "cefb villejuif",
        "add_1": "83/85, bd maxime gorki",
        "add_2": 0,
        "cp": 94800,
        "city": "villejuif",
        "lng": 2.3690100,
        "lat": 48.7945000,
        "place_type": 0
    },
    {
        "name": "rexel len paris11",
        "add_1": "40 boulevard richard lenoir",
        "add_2": 0,
        "cp": 75011,
        "city": "paris 11",
        "lng": 2.3715700,
        "lat": 48.8576000,
        "place_type": 1
    },
    {
        "name": "rexel nat paris12",
        "add_1": "4  ave dorian",
        "add_2": 0,
        "cp": 75012,
        "city": "paris 12",
        "lng": 2.3940500,
        "lat": 48.8471000,
        "place_type": 0
    },
    {
        "name": "coaxel laplainesd",
        "add_1": "14 rue de la montjoie",
        "add_2": 0,
        "cp": 93210,
        "city": "la plaine st denis",
        "lng": 2.3624400,
        "lat": 48.9094000,
        "place_type": 1
    },
    {
        "name": "rexel etampes",
        "add_1": "9 rue des rochettes",
        "add_2": 0,
        "cp": 91150,
        "city": "morigny champigny",
        "lng": 2.1708900,
        "lat": 48.4545000,
        "place_type": 0
    },
    {
        "name": "cged etampes",
        "add_1": "18, avenue des grenots",
        "add_2": "zi d'etampes",
        "cp": 91150,
        "city": "etampes",
        "lng": 2.1577400,
        "lat": 48.4513000,
        "place_type": 1
    },
    {
        "name": "tereva ruffec",
        "add_1": "route de montjean",
        "add_2": 0,
        "cp": 16700,
        "city": "ruffec",
        "lng": 0.1840500,
        "lat": 46.0328000,
        "place_type": 0
    },
    {
        "name": "comafranc belfort",
        "add_1": "20 rue albert camus",
        "add_2": "bp 30259",
        "cp": 90005,
        "city": "belfort",
        "lng": 6.8851800,
        "lat": 47.6435000,
        "place_type": 1
    },
    {
        "name": "yesss ladefense",
        "add_1": "127 boulevard de verdun",
        "add_2": 0,
        "cp": 92400,
        "city": "courbevoie",
        "lng": 2.2570900,
        "lat": 48.9039000,
        "place_type": 0
    },
    {
        "name": "yesss bergerac",
        "add_1": "zae porte de la dordogne",
        "add_2": "n° 7",
        "cp": 24100,
        "city": "bergerac",
        "lng": 0.4833920,
        "lat": 44.8538060,
        "place_type": 1
    },
    {
        "name": "cefb nanterre",
        "add_1": "73 rue noel pons",
        "add_2": 0,
        "cp": 92000,
        "city": "nanterre",
        "lng": 2.2281400,
        "lat": 48.9081000,
        "place_type": 0
    },
    {
        "name": "cefb maisonsalf",
        "add_1": "14, rue charles-martigny",
        "add_2": "z.i. des petites haies",
        "cp": 94700,
        "city": "maisons alfort",
        "lng": 2.4362600,
        "lat": 48.7902000,
        "place_type": 1
    },
    {
        "name": "rexel croissy",
        "add_1": "26 boulevard de beaubourg",
        "add_2": 0,
        "cp": 77183,
        "city": "croissy beaubourg",
        "lng": 2.6293100,
        "lat": 48.8174000,
        "place_type": 0
    },
    {
        "name": "yesss tonnaychar",
        "add_1": "1 rue nicolas appert",
        "add_2": "zac de la varenne",
        "cp": 17430,
        "city": "tonnay charente",
        "lng": -0.8950000,
        "lat": 45.9519000,
        "place_type": 1
    },
    {
        "name": "cobatri perigueux",
        "add_1": "zone industrielle",
        "add_2": "rue firmin bouvier",
        "cp": 24750,
        "city": "boulazac",
        "lng": 0.7682700,
        "lat": 45.1772000,
        "place_type": 0
    },
    {
        "name": "legallais caen",
        "add_1": "7 rue d atalante",
        "add_2": "citis",
        "cp": 14200,
        "city": "herouville st clair",
        "lng": -0.3509000,
        "lat": 49.2162000,
        "place_type": 1
    },
    {
        "name": "cged paris10",
        "add_1": "175 quai de valmy",
        "add_2": 0,
        "cp": 75010,
        "city": "paris 10",
        "lng": 2.3669400,
        "lat": 48.8798000,
        "place_type": 0
    },
    {
        "name": "cged villeneuve",
        "add_1": "17 avenue jean jaures",
        "add_2": 0,
        "cp": 92390,
        "city": "villeneuve la garenne",
        "lng": 2.3252700,
        "lat": 48.9323000,
        "place_type": 1
    },
    {
        "name": "lumi metal rueilmalma",
        "add_1": "89, rue des rosiers",
        "add_2": 0,
        "cp": 92500,
        "city": "rueil malmaison",
        "lng": 2.2083400,
        "lat": 48.8701000,
        "place_type": 0
    },
    {
        "name": "coaxel meaux",
        "add_1": "5 rue ampere",
        "add_2": "zi nord",
        "cp": 77100,
        "city": "meaux",
        "lng": 2.9112400,
        "lat": 48.9608000,
        "place_type": 1
    },
    {
        "name": "yonnelec mouroux",
        "add_1": "1537 av du général de gaulle",
        "add_2": "zi prairie st pierre",
        "cp": 77120,
        "city": "mouroux",
        "lng": 3.0224400,
        "lat": 48.8296000,
        "place_type": 0
    },
    {
        "name": "coaxel ozoirlafer",
        "add_1": "35, rue francois de tessand",
        "add_2": "zone industrielle",
        "cp": 77330,
        "city": "ozoir la ferriere",
        "lng": 2.7002800,
        "lat": 48.7587000,
        "place_type": 1
    },
    {
        "name": "cefb boulognebi",
        "add_1": "42 bis rue de l est",
        "add_2": 0,
        "cp": 92100,
        "city": "boulogne billancourt",
        "lng": 2.2444900,
        "lat": 48.8414000,
        "place_type": 0
    },
    {
        "name": "umhs melun",
        "add_1": "49 route departementale 306",
        "add_2": "bp 6",
        "cp": 77002,
        "city": "melun cedex",
        "lng": 2.6530000,
        "lat": 48.5442000,
        "place_type": 1
    },
    {
        "name": "sanelec wattrelos",
        "add_1": "centre d'affaire mendes france",
        "add_2": "73 boulevard mendes france",
        "cp": 59150,
        "city": "wattrelos",
        "lng": 3.2134700,
        "lat": 50.6968000,
        "place_type": 0
    },
    {
        "name": "rexel nimes e",
        "add_1": "31 rue de l abrivado",
        "add_2": "zi mas de chalvidan",
        "cp": 30000,
        "city": "nimes",
        "lng": 4.3899600,
        "lat": 43.8393000,
        "place_type": 1
    },
    {
        "name": "cged nanterre",
        "add_1": "20 rue des sablieres",
        "add_2": "zi des guilleraies",
        "cp": 92000,
        "city": "nanterre",
        "lng": 2.1856800,
        "lat": 48.8944000,
        "place_type": 0
    },
    {
        "name": "nollet montreuil",
        "add_1": "17 rue de la republique",
        "add_2": "68 rue voltaire (acces)",
        "cp": 93100,
        "city": "montreuil sous bois",
        "lng": 2.4225800,
        "lat": 48.8531000,
        "place_type": 1
    },
    {
        "name": "cged vanves",
        "add_1": "40 rue jean bleuzen",
        "add_2": 0,
        "cp": 92170,
        "city": "vanves",
        "lng": 2.2932500,
        "lat": 48.8215000,
        "place_type": 0
    },
    {
        "name": "rexel villepinte",
        "add_1": "1/3 ave georges clemenceau",
        "add_2": 0,
        "cp": 93420,
        "city": "villepinte",
        "lng": 2.5572200,
        "lat": 48.9596000,
        "place_type": 1
    },
    {
        "name": "yesss monistrol",
        "add_1": "za la borie",
        "add_2": 0,
        "cp": 43120,
        "city": "monistrol sur loire",
        "lng": 4.1828558,
        "lat": 45.2804302,
        "place_type": 0
    },
    {
        "name": "aed crolles",
        "add_1": "314 rue des sources",
        "add_2": 0,
        "cp": 38920,
        "city": "crolles",
        "lng": 5.8908000,
        "lat": 45.2730000,
        "place_type": 1
    },
    {
        "name": "rexel andernos",
        "add_1": "3 rue gilles roberval",
        "add_2": "za les canadiens nord",
        "cp": 33510,
        "city": "andernos les bains",
        "lng": -1.0749000,
        "lat": 44.7647000,
        "place_type": 0
    },
    {
        "name": "cged brignais",
        "add_1": "8 chemin des tards venus",
        "add_2": "parc moninsable brignais 2000",
        "cp": 69530,
        "city": "brignais",
        "lng": 4.7734700,
        "lat": 45.6804000,
        "place_type": 1
    },
    {
        "name": "sdme auxerre",
        "add_1": "73 rue du moulin president",
        "add_2": "zone de champoulains",
        "cp": 89000,
        "city": "auxerre",
        "lng": 3.5817000,
        "lat": 47.8103000,
        "place_type": 0
    },
    {
        "name": "appro sixfours",
        "add_1": "parc activite des playes",
        "add_2": "350 avenue de l europe",
        "cp": 83140,
        "city": "six fours",
        "lng": 5.8458800,
        "lat": 43.1169000,
        "place_type": 1
    },
    {
        "name": "yesss riom",
        "add_1": "4 rue rené robin",
        "add_2": 0,
        "cp": 63200,
        "city": "mozac",
        "lng": 3.0726500,
        "lat": 45.8902000,
        "place_type": 0
    },
    {
        "name": "cdl elec challans",
        "add_1": "135 route de nantes",
        "add_2": "zone industrielle",
        "cp": 85300,
        "city": "challans",
        "lng": -1.8689000,
        "lat": 46.8591000,
        "place_type": 1
    },
    {
        "name": "vds bagnolet",
        "add_1": "73 / 77 rue des rigondes",
        "add_2": 0,
        "cp": 93170,
        "city": "bagnolet",
        "lng": 2.4334100,
        "lat": 48.8733000,
        "place_type": 0
    },
    {
        "name": "rexel nanterre",
        "add_1": "zi parc de l ile",
        "add_2": "19 rue du port",
        "cp": 92000,
        "city": "nanterre",
        "lng": 2.1749400,
        "lat": 48.8935000,
        "place_type": 1
    },
    {
        "name": "cged noisy",
        "add_1": "2 rue mozart",
        "add_2": "zi du parc",
        "cp": 93130,
        "city": "noisy le sec",
        "lng": 2.4430100,
        "lat": 48.8946000,
        "place_type": 0
    },
    {
        "name": "cefb marnelaval",
        "add_1": "avenue gue langlois",
        "add_2": 0,
        "cp": 77600,
        "city": "bussy saint martin",
        "lng": 2.6655900,
        "lat": 48.8445000,
        "place_type": 1
    },
    {
        "name": "cged lannion",
        "add_1": "rue maryse bastie",
        "add_2": "zone de troguery",
        "cp": 22300,
        "city": "lannion",
        "lng": -3.4443000,
        "lat": 48.7408000,
        "place_type": 0
    },
    {
        "name": "yesss montpell n",
        "add_1": "762 rue puech villa",
        "add_2": "parc euromedecine",
        "cp": 34197,
        "city": "montpellier cedex 5",
        "lng": 3.8289700,
        "lat": 43.6404000,
        "place_type": 1
    },
    {
        "name": "cecci lecannet",
        "add_1": "33 chemin des fades",
        "add_2": 0,
        "cp": 6110,
        "city": "le cannet rocheville",
        "lng": 6.9912600,
        "lat": 43.5756000,
        "place_type": 0
    },
    {
        "name": "cefb coulommier",
        "add_1": "23 - 27 avenue de strasbourg",
        "add_2": 0,
        "cp": 77120,
        "city": "coulommiers",
        "lng": 3.0836000,
        "lat": 48.8072000,
        "place_type": 1
    },
    {
        "name": "cegla ivry/seine",
        "add_1": "20 boulevard du colonel fabien",
        "add_2": "bp 222",
        "cp": 94200,
        "city": "ivry sur seine",
        "lng": 2.4071200,
        "lat": 48.8146000,
        "place_type": 0
    },
    {
        "name": "vds lieusaint",
        "add_1": "90 rue benjamin delessert",
        "add_2": "zi de moissy cramayel",
        "cp": 77567,
        "city": "lieusaint",
        "lng": 2.5635900,
        "lat": 48.6236000,
        "place_type": 1
    },
    {
        "name": "cdl elec guerande",
        "add_1": "route de la baule",
        "add_2": "za des salines",
        "cp": 44350,
        "city": "guerande",
        "lng": -2.4119000,
        "lat": 47.3158000,
        "place_type": 0
    },
    {
        "name": "leissner epinal",
        "add_1": "20 rue leo valentin",
        "add_2": "zi de la voivre",
        "cp": 88000,
        "city": "epinal",
        "lng": 6.4635000,
        "lat": 48.2017000,
        "place_type": 1
    },
    {
        "name": "coaxel gdquevilly",
        "add_1": "2 rue paul vaillant couturier",
        "add_2": 0,
        "cp": 76120,
        "city": "grand quevilly",
        "lng": 1.0510300,
        "lat": 49.4217000,
        "place_type": 0
    },
    {
        "name": "rexel melun",
        "add_1": "570, rue du marechal juin",
        "add_2": "zi vaux le penil",
        "cp": 77000,
        "city": "melun",
        "lng": 2.6768100,
        "lat": 48.5444000,
        "place_type": 1
    },
    {
        "name": "coaxel colombes",
        "add_1": "165 boulevard de valmy",
        "add_2": "zac kleber",
        "cp": 92700,
        "city": "colombes",
        "lng": 2.2559600,
        "lat": 48.9345000,
        "place_type": 0
    },
    {
        "name": "rexel rosny",
        "add_1": "8-12 rue de lisbonne",
        "add_2": "zac de nanteuil",
        "cp": 93110,
        "city": "rosny sous bois",
        "lng": 2.4753400,
        "lat": 48.8791000,
        "place_type": 1
    },
    {
        "name": "cefb aulnay/boi",
        "add_1": "44 rue maurice de broglie",
        "add_2": "zac des mardelles",
        "cp": 93600,
        "city": "aulnay sous bois",
        "lng": 2.4827300,
        "lat": 48.9465000,
        "place_type": 0
    },
    {
        "name": "cged chennevier",
        "add_1": "zi nationale",
        "add_2": "35, rue gay lussac",
        "cp": 94430,
        "city": "chennevieres sur marne",
        "lng": 2.5458400,
        "lat": 48.7933000,
        "place_type": 1
    },
    {
        "name": "rexel palaiseau",
        "add_1": "9 rue salvador allende",
        "add_2": "zac de palaiseau",
        "cp": 91120,
        "city": "palaiseau",
        "lng": 2.2599900,
        "lat": 48.7116000,
        "place_type": 0
    },
    {
        "name": "rexel avon",
        "add_1": "38, ave franklin roosevelt",
        "add_2": 0,
        "cp": 77210,
        "city": "avon",
        "lng": 2.7215700,
        "lat": 48.4158000,
        "place_type": 1
    },
    {
        "name": "sacais st herblain",
        "add_1": "8 rue julius & ethel rosenberg",
        "add_2": "zac de la lorie",
        "cp": 44800,
        "city": "st herblain",
        "lng": -1.6604000,
        "lat": 47.2350000,
        "place_type": 0
    },
    {
        "name": "augelec issoire",
        "add_1": "zi du broc",
        "add_2": 0,
        "cp": 63500,
        "city": "issoire",
        "lng": 3.2481280,
        "lat": 45.5415100,
        "place_type": 1
    },
    {
        "name": "yesss straphael",
        "add_1": "zone d'activite du cerceron lot 2",
        "add_2": 0,
        "cp": 83700,
        "city": "saint raphael",
        "lng": 6.7683700,
        "lat": 43.4251900,
        "place_type": 0
    },
    {
        "name": "yesss marseille",
        "add_1": "49 avenue b. delessert",
        "add_2": "rue roumanin la capelette",
        "cp": 13010,
        "city": "marseille",
        "lng": 5.3949600,
        "lat": 43.2841000,
        "place_type": 1
    },
    {
        "name": "umhs corbeil",
        "add_1": "13 rue gustave eiffel",
        "add_2": 0,
        "cp": 91100,
        "city": "corbeil essonnes",
        "lng": 2.4664300,
        "lat": 48.6181000,
        "place_type": 0
    },
    {
        "name": "cged tourlavill",
        "add_1": "za rue des metiers",
        "add_2": "bd de l est",
        "cp": 50110,
        "city": "tourlaville",
        "lng": -1.5795000,
        "lat": 49.6407000,
        "place_type": 1
    },
    {
        "name": "tabur cherbourg",
        "add_1": "161 rue des industries",
        "add_2": "z.i. de tourlaville",
        "cp": 50110,
        "city": "tourlaville",
        "lng": -1.5884000,
        "lat": 49.6334000,
        "place_type": 0
    },
    {
        "name": "rexel argentan",
        "add_1": "7 rue de l'avenir",
        "add_2": 0,
        "cp": 61200,
        "city": "argentan",
        "lng": -0.0298000,
        "lat": 48.7321000,
        "place_type": 1
    },
    {
        "name": "comafranc belfort",
        "add_1": "zone industrielle de thise",
        "add_2": "rue des vallieres sud",
        "cp": 25024,
        "city": "besancon cedex",
        "lng": 5.9942300,
        "lat": 47.2117000,
        "place_type": 0
    },
    {
        "name": "rexel caen",
        "add_1": "3 impasse de la girafe",
        "add_2": "zone industrielle nord montcoco",
        "cp": 14000,
        "city": "caen",
        "lng": -0.3645000,
        "lat": 49.2032000,
        "place_type": 1
    },
    {
        "name": "cged caen",
        "add_1": "144 rue marie curie",
        "add_2": "bp 65 cedex",
        "cp": 14203,
        "city": "herouville st clair",
        "lng": -0.3442000,
        "lat": 49.2132000,
        "place_type": 0
    },
    {
        "name": "yesss biscarross",
        "add_1": "1001 route de parentis",
        "add_2": 0,
        "cp": 40600,
        "city": "biscarrosse",
        "lng": -1.1418000,
        "lat": 44.3808000,
        "place_type": 1
    },
    {
        "name": "cso rodez",
        "add_1": "7 bis, avenue du causse",
        "add_2": "za bel air entree n° 2",
        "cp": 12850,
        "city": "rodez",
        "lng": 2.5476700,
        "lat": 44.3762000,
        "place_type": 0
    },
    {
        "name": "tabur alencon",
        "add_1": "8 rue georges champetier",
        "add_2": "zi nord",
        "cp": 61250,
        "city": "damigny",
        "lng": 0.0858500,
        "lat": 48.4510000,
        "place_type": 1
    },
    {
        "name": "rexel mgx lehavre",
        "add_1": "39 rue des magasins generaux",
        "add_2": 0,
        "cp": 76080,
        "city": "le havre cedex",
        "lng": 0.1375000,
        "lat": 49.4926000,
        "place_type": 0
    },
    {
        "name": "cged lehavre",
        "add_1": "25 rue gustave nicole",
        "add_2": 0,
        "cp": 76600,
        "city": "le havre",
        "lng": 0.1434600,
        "lat": 49.4909000,
        "place_type": 1
    },
    {
        "name": "tabur lehavre",
        "add_1": "61 rue gustave nicolle",
        "add_2": 0,
        "cp": 76600,
        "city": "le havre",
        "lng": 0.1449000,
        "lat": 49.4913000,
        "place_type": 0
    },
    {
        "name": "cged evry",
        "add_1": "65 rue du bois chaland",
        "add_2": 0,
        "cp": 91090,
        "city": "lisses",
        "lng": 2.4365700,
        "lat": 48.6006000,
        "place_type": 1
    },
    {
        "name": "tereva lateste",
        "add_1": "501 av gustave eiffel",
        "add_2": 0,
        "cp": 33260,
        "city": "la teste de buch",
        "lng": -1.1264000,
        "lat": 44.6108000,
        "place_type": 0
    },
    {
        "name": "coaxel alencon",
        "add_1": "13 rue francois arago",
        "add_2": "z i nord",
        "cp": 61000,
        "city": "alencon",
        "lng": 0.0955700,
        "lat": 48.4481000,
        "place_type": 1
    },
    {
        "name": "maillard alencon",
        "add_1": "rue lazare carnot",
        "add_2": "zone industrielle",
        "cp": 61003,
        "city": "alencon cedex",
        "lng": 0.0932900,
        "lat": 48.4463000,
        "place_type": 0
    },
    {
        "name": "tereva lyon",
        "add_1": "24 rue d arsonval",
        "add_2": 0,
        "cp": 69680,
        "city": "chassieu",
        "lng": 4.9708800,
        "lat": 45.7265000,
        "place_type": 1
    },
    {
        "name": "rexel alencon",
        "add_1": "pole d activites d ecouves",
        "add_2": "rue georges champetier",
        "cp": 61250,
        "city": "damigny",
        "lng": 0.0852100,
        "lat": 48.4494000,
        "place_type": 0
    },
    {
        "name": "nollet lehavre",
        "add_1": "20 rue gustave nicolle",
        "add_2": 0,
        "cp": 76600,
        "city": "le havre",
        "lng": 0.1434200,
        "lat": 49.4907000,
        "place_type": 1
    },
    {
        "name": "cged burnhaupt",
        "add_1": "5 avenue de l europe",
        "add_2": 0,
        "cp": 68520,
        "city": "burnhaupt le bas",
        "lng": 7.1670400,
        "lat": 47.7133000,
        "place_type": 0
    },
    {
        "name": "yesss sete",
        "add_1": "484 avenue des eaux blanches",
        "add_2": "zi les eaux blanches",
        "cp": 34200,
        "city": "sete",
        "lng": 3.7106600,
        "lat": 43.4186000,
        "place_type": 1
    },
    {
        "name": "tabur avranches",
        "add_1": "zone industrielle le chesnel",
        "add_2": "avenue du rocher",
        "cp": 50300,
        "city": "saint martin des champs",
        "lng": -1.3297000,
        "lat": 48.6756000,
        "place_type": 0
    },
    {
        "name": "rexel eu",
        "add_1": "za europolis",
        "add_2": 0,
        "cp": 76260,
        "city": "eu",
        "lng": 1.4195970,
        "lat": 50.0488700,
        "place_type": 1
    },
    {
        "name": "tereva larochelle",
        "add_1": "rue jacques de vaucanson",
        "add_2": 0,
        "cp": 17180,
        "city": "perigny",
        "lng": -1.0965000,
        "lat": 46.1658000,
        "place_type": 0
    },
    {
        "name": "eleccity paris5",
        "add_1": "13 boulevard saint germain",
        "add_2": 0,
        "cp": 75005,
        "city": "paris",
        "lng": 2.3540300,
        "lat": 48.8493000,
        "place_type": 1
    },
    {
        "name": "cged vaulxenvel",
        "add_1": "110 avenue franklin roosevelt",
        "add_2": 0,
        "cp": 69120,
        "city": "vaulx en velin",
        "lng": 4.9360400,
        "lat": 45.7577000,
        "place_type": 0
    },
    {
        "name": "cged lens",
        "add_1": "rue des renardieres",
        "add_2": "zi des renardieres",
        "cp": 62300,
        "city": "lens",
        "lng": 2.8252600,
        "lat": 50.4509000,
        "place_type": 1
    },
    {
        "name": "socolec vire",
        "add_1": "avenue de bischwiller",
        "add_2": 0,
        "cp": 14500,
        "city": "vire",
        "lng": -0.8741000,
        "lat": 48.8569000,
        "place_type": 0
    },
    {
        "name": "cged granville",
        "add_1": "zi du mesnil",
        "add_2": 0,
        "cp": 50400,
        "city": "granville",
        "lng": -1.5301611,
        "lat": 48.8396762,
        "place_type": 1
    },
    {
        "name": "rexel rouen n",
        "add_1": "rue georges charpak",
        "add_2": "za 5 les portes de l ouest",
        "cp": 76150,
        "city": "saint jean du cardonnay",
        "lng": 1.0186500,
        "lat": 49.4903000,
        "place_type": 0
    },
    {
        "name": "coaxel rouen rd",
        "add_1": "route de lyons",
        "add_2": "za des deux rivieres",
        "cp": 76000,
        "city": "rouen cedex",
        "lng": 1.1268700,
        "lat": 49.4492000,
        "place_type": 1
    },
    {
        "name": "rexel flers",
        "add_1": "483 rue du bon marche",
        "add_2": 0,
        "cp": 61102,
        "city": "flers cedex 2",
        "lng": -0.5859000,
        "lat": 48.7254000,
        "place_type": 0
    },
    {
        "name": "tereva poitiers",
        "add_1": "181 avenue du 8 mai 1945",
        "add_2": 0,
        "cp": 86000,
        "city": "poitiers",
        "lng": 0.3020100,
        "lat": 46.5500000,
        "place_type": 1
    },
    {
        "name": "rexel dieppe",
        "add_1": "z.i. louis delaporte",
        "add_2": "rouxmesnil-bouteilles",
        "cp": 76370,
        "city": "neuville les dieppe",
        "lng": 1.0774830,
        "lat": 49.9229920,
        "place_type": 0
    },
    {
        "name": "mabeo lehavre",
        "add_1": "route du pont vii",
        "add_2": "zi portuaire",
        "cp": 76600,
        "city": "le havre",
        "lng": 0.1828700,
        "lat": 49.4892000,
        "place_type": 1
    },
    {
        "name": "cso lateste",
        "add_1": "321 avenue du parc des expositions",
        "add_2": 0,
        "cp": 33260,
        "city": "la teste de buch",
        "lng": -1.1188000,
        "lat": 44.6146000,
        "place_type": 0
    },
    {
        "name": "nollet evreux",
        "add_1": "823 rue jacquard",
        "add_2": "zone industrielle n 2",
        "cp": 27000,
        "city": "evreux",
        "lng": 1.1398000,
        "lat": 49.0019000,
        "place_type": 1
    },
    {
        "name": "cee evreux",
        "add_1": "rue jacquard zi n°2",
        "add_2": "bp 3233",
        "cp": 27032,
        "city": "evreux",
        "lng": 1.1398000,
        "lat": 49.0019000,
        "place_type": 0
    },
    {
        "name": "tabur bernay",
        "add_1": "129 rue general maurice bourgeois",
        "add_2": 0,
        "cp": 27300,
        "city": "bernay",
        "lng": 0.5839900,
        "lat": 49.0740000,
        "place_type": 1
    },
    {
        "name": "cged rouen",
        "add_1": "z.i. rue du pre aux boeufs",
        "add_2": "b.p. 498",
        "cp": 76807,
        "city": "saint etienne du rouvray",
        "lng": 1.1082200,
        "lat": 49.3803000,
        "place_type": 0
    },
    {
        "name": "cdl elec fougeres",
        "add_1": "boulevard michel cointat",
        "add_2": "zac de la guenaudiere",
        "cp": 35300,
        "city": "fougeres",
        "lng": -1.1861000,
        "lat": 48.3469000,
        "place_type": 1
    },
    {
        "name": "yesss bailleul",
        "add_1": "avenue de l europe",
        "add_2": 0,
        "cp": 59270,
        "city": "bailleul",
        "lng": 2.7337700,
        "lat": 50.7265000,
        "place_type": 0
    },
    {
        "name": "rexel lisieux",
        "add_1": "rue andre cousinet",
        "add_2": 0,
        "cp": 14101,
        "city": "lisieux cedex",
        "lng": 0.2610000,
        "lat": 49.1481000,
        "place_type": 1
    },
    {
        "name": "rexel evreux",
        "add_1": "rue fourier & jacquard",
        "add_2": "zi n° 2 la madeleine bp 542",
        "cp": 27005,
        "city": "evreux",
        "lng": 1.1350900,
        "lat": 49.0010000,
        "place_type": 0
    },
    {
        "name": "cged evreux",
        "add_1": "3 rue jacquard",
        "add_2": "zi n°2",
        "cp": 27000,
        "city": "evreux",
        "lng": 1.1455600,
        "lat": 49.0019000,
        "place_type": 1
    },
    {
        "name": "nollet herouville",
        "add_1": "zac citis",
        "add_2": "9 rue sofia antipolis",
        "cp": 14200,
        "city": "herouville st clair",
        "lng": -0.3486000,
        "lat": 49.2154000,
        "place_type": 0
    },
    {
        "name": "rexel saintlo",
        "add_1": "z.i. la capelle",
        "add_2": "597 rue jouhaux      b.p. 503",
        "cp": 50009,
        "city": "saint lo cedex",
        "lng": -1.0556000,
        "lat": 49.1117000,
        "place_type": 1
    },
    {
        "name": "tabur mondeville",
        "add_1": "cours montalivet",
        "add_2": "b.p. 34",
        "cp": 14125,
        "city": "mondeville cedex",
        "lng": -0.3304000,
        "lat": 49.1799000,
        "place_type": 0
    },
    {
        "name": "mabeo pau",
        "add_1": "23 avenue leon blum",
        "add_2": 0,
        "cp": 64000,
        "city": "pau",
        "lng": -0.3298000,
        "lat": 43.3178000,
        "place_type": 1
    },
    {
        "name": "socolec mondeville",
        "add_1": "cours montalivet",
        "add_2": 0,
        "cp": 14120,
        "city": "mondeville",
        "lng": -0.3304000,
        "lat": 49.1799000,
        "place_type": 0
    },
    {
        "name": "rexel cherbourg",
        "add_1": "zi du sauxmarais",
        "add_2": "871 rue jean bouin -",
        "cp": 50110,
        "city": "tourlaville",
        "lng": -1.5861000,
        "lat": 49.6331000,
        "place_type": 1
    },
    {
        "name": "rexel avignoncou",
        "add_1": "105 rue de l'aulaniere",
        "add_2": "zi courtine",
        "cp": 84000,
        "city": "avignon",
        "lng": 4.7845300,
        "lat": 43.9336000,
        "place_type": 0
    },
    {
        "name": "cdl elec cucq",
        "add_1": "155 avenue francois godin",
        "add_2": 0,
        "cp": 62780,
        "city": "cucq",
        "lng": 1.6199500,
        "lat": 50.4866000,
        "place_type": 1
    },
    {
        "name": "yesss isle/sorgu",
        "add_1": "25, avenue petite marine",
        "add_2": "za petite marine",
        "cp": 84800,
        "city": "l'isle sur sorgue",
        "lng": 5.0274100,
        "lat": 43.9206000,
        "place_type": 0
    },
    {
        "name": "cged perpignan",
        "add_1": "177 rue pierre pascal fauvelle",
        "add_2": 0,
        "cp": 66000,
        "city": "perpignan",
        "lng": 2.8696100,
        "lat": 42.6845000,
        "place_type": 1
    },
    {
        "name": "siehr steinbourg",
        "add_1": "34, route de saverne",
        "add_2": 0,
        "cp": 67790,
        "city": "steinbourg",
        "lng": 7.4061200,
        "lat": 48.7587000,
        "place_type": 0
    },
    {
        "name": "tereva pontault",
        "add_1": "9 rue saint claude",
        "add_2": "zone industrielle saint claude",
        "cp": 77340,
        "city": "pontault combault",
        "lng": 2.6107600,
        "lat": 48.7779000,
        "place_type": 1
    },
    {
        "name": "devel schiltighe",
        "add_1": "10 rue alfred kastler",
        "add_2": 0,
        "cp": 67300,
        "city": "schiltigheim",
        "lng": 7.7203000,
        "lat": 48.6104000,
        "place_type": 0
    },
    {
        "name": "cged nevers",
        "add_1": "zi nevers saint eloi",
        "add_2": "rue georges dufaud",
        "cp": 58000,
        "city": "nevers",
        "lng": 3.1901400,
        "lat": 47.0017000,
        "place_type": 1
    },
    {
        "name": "cso limoges",
        "add_1": "47 rue claude henri de gorceix",
        "add_2": "zi nord",
        "cp": 87280,
        "city": "limoges",
        "lng": 1.2886600,
        "lat": 45.8879000,
        "place_type": 0
    },
    {
        "name": "rexel pornic",
        "add_1": "route de la fraiseraie",
        "add_2": "les terres jarries",
        "cp": 44210,
        "city": "pornic",
        "lng": -2.0850000,
        "lat": 47.1338000,
        "place_type": 1
    },
    {
        "name": "yesss chateauarn",
        "add_1": "av blaches gombert",
        "add_2": 0,
        "cp": 4160,
        "city": "chateau arnoux",
        "lng": 6.0008100,
        "lat": 44.0796000,
        "place_type": 0
    },
    {
        "name": "cle tarare",
        "add_1": "route nationale 7",
        "add_2": "le payet",
        "cp": 69490,
        "city": "saint loup",
        "lng": 4.4632300,
        "lat": 45.8870000,
        "place_type": 1
    },
    {
        "name": "socolec lehavre",
        "add_1": "17 rue viviani",
        "add_2": 0,
        "cp": 76600,
        "city": "le havre",
        "lng": 0.1579900,
        "lat": 49.4908000,
        "place_type": 0
    },
    {
        "name": "rexel lavaur",
        "add_1": "40 avenue gabriel peri",
        "add_2": 0,
        "cp": 81500,
        "city": "lavaur",
        "lng": 1.8207800,
        "lat": 43.7040000,
        "place_type": 1
    },
    {
        "name": "yesss cherbourg",
        "add_1": "515 boulevard de l est",
        "add_2": 0,
        "cp": 50110,
        "city": "tourlaville",
        "lng": -1.5949000,
        "lat": 49.6364000,
        "place_type": 0
    },
    {
        "name": "rexel saintdie",
        "add_1": "2 impasse du pre blinvil",
        "add_2": 0,
        "cp": 88100,
        "city": "st die",
        "lng": 6.9675000,
        "lat": 48.2785000,
        "place_type": 1
    },
    {
        "name": "dupont saintdie",
        "add_1": "centre d'activite",
        "add_2": "791 rue des grands pres",
        "cp": 88100,
        "city": "ste marguerite",
        "lng": 6.9744900,
        "lat": 48.2746000,
        "place_type": 0
    },
    {
        "name": "rexel houdemont",
        "add_1": "3 allee des prunus",
        "add_2": 0,
        "cp": 54180,
        "city": "houdemont",
        "lng": 6.1871900,
        "lat": 48.6427000,
        "place_type": 1
    },
    {
        "name": "rexel hesingue",
        "add_1": "1 rue de metz",
        "add_2": 0,
        "cp": 68220,
        "city": "hesingue",
        "lng": 7.5136300,
        "lat": 47.5838000,
        "place_type": 0
    },
    {
        "name": "yesss troyes",
        "add_1": "10 rue jean baptiste colbert",
        "add_2": "zone industrielle les pres de lyon",
        "cp": 10600,
        "city": "la chapelle saint luc",
        "lng": 4.0252300,
        "lat": 48.3109000,
        "place_type": 1
    },
    {
        "name": "trapy merignac",
        "add_1": "13 rue françois arago",
        "add_2": 0,
        "cp": 33700,
        "city": "merignac",
        "lng": -0.6674000,
        "lat": 44.8561000,
        "place_type": 0
    },
    {
        "name": "dupont stetremire",
        "add_1": "7 rue pont de cheneau",
        "add_2": 0,
        "cp": 88200,
        "city": "st etienne les remiremont",
        "lng": 6.6075100,
        "lat": 48.0116000,
        "place_type": 1
    },
    {
        "name": "btc em metz",
        "add_1": "11 rue des serruriers",
        "add_2": 0,
        "cp": 57070,
        "city": "metz",
        "lng": 6.2407400,
        "lat": 49.1160000,
        "place_type": 0
    },
    {
        "name": "yesss blois",
        "add_1": "3 rue de l azin",
        "add_2": 0,
        "cp": 41000,
        "city": "blois",
        "lng": 1.3304400,
        "lat": 47.6135000,
        "place_type": 1
    },
    {
        "name": "crdesfers macon",
        "add_1": "786 rue de la republique",
        "add_2": 0,
        "cp": 71000,
        "city": "macon",
        "lng": 4.8261800,
        "lat": 46.2939000,
        "place_type": 0
    },
    {
        "name": "cged troyes",
        "add_1": "55 bis rue j.baptiste colbert",
        "add_2": "z.i. de l'isle",
        "cp": 10600,
        "city": "la chapelle saint luc",
        "lng": 4.0245900,
        "lat": 48.3202000,
        "place_type": 1
    },
    {
        "name": "comet troyes",
        "add_1": "30 av président rene coty",
        "add_2": "rn 319",
        "cp": 10600,
        "city": "la chapelle st luc cedex",
        "lng": 4.0312800,
        "lat": 48.3254000,
        "place_type": 0
    },
    {
        "name": "crdesfers chalon/sao",
        "add_1": "25 rue croix saint clement",
        "add_2": 0,
        "cp": 71530,
        "city": "champforgeuil",
        "lng": 4.8319900,
        "lat": 46.8212000,
        "place_type": 1
    },
    {
        "name": "rexel issymoulin",
        "add_1": "1 rue jacques henri lartigue",
        "add_2": 0,
        "cp": 92130,
        "city": "issy les moulineaux",
        "lng": 2.2612500,
        "lat": 48.8243000,
        "place_type": 0
    },
    {
        "name": "rexel sarreguemi",
        "add_1": "57 route de nancy",
        "add_2": 0,
        "cp": 57200,
        "city": "sarreguemines",
        "lng": 7.0593000,
        "lat": 49.0999000,
        "place_type": 1
    },
    {
        "name": "rexel stiringwen",
        "add_1": "zone industrielle de la heidt",
        "add_2": "10 rue robert schumann",
        "cp": 57351,
        "city": "stiring wendel cedex",
        "lng": 6.9245800,
        "lat": 49.1938000,
        "place_type": 0
    },
    {
        "name": "rexel metz",
        "add_1": "zac de la petite voevre",
        "add_2": "rue de la mouee/bvd solidarite",
        "cp": 57070,
        "city": "metz",
        "lng": 6.2493000,
        "lat": 49.1073000,
        "place_type": 1
    },
    {
        "name": "cged selestat",
        "add_1": "18 route d'orschwiller",
        "add_2": "bp 104",
        "cp": 67600,
        "city": "selestat",
        "lng": 7.4351100,
        "lat": 48.2556000,
        "place_type": 0
    },
    {
        "name": "cso stnazaire",
        "add_1": "172 rue henri gautier",
        "add_2": 0,
        "cp": 44600,
        "city": "st nazaire",
        "lng": -2.2024000,
        "lat": 47.2872000,
        "place_type": 1
    },
    {
        "name": "cged moirans",
        "add_1": "335 c rue de la roche brune",
        "add_2": "batiment c",
        "cp": 38430,
        "city": "moirans",
        "lng": 5.5884500,
        "lat": 45.3210000,
        "place_type": 0
    },
    {
        "name": "dupont neufchatea",
        "add_1": "26 avenue herrigen",
        "add_2": 0,
        "cp": 88300,
        "city": "neufchateau",
        "lng": 5.6931400,
        "lat": 48.3594000,
        "place_type": 1
    },
    {
        "name": "cged metz",
        "add_1": "2 rue teilhard de chardin",
        "add_2": 0,
        "cp": 57050,
        "city": "metz",
        "lng": 6.1725900,
        "lat": 49.1451000,
        "place_type": 0
    },
    {
        "name": "sdme beaune",
        "add_1": "rue gaston chevrolet",
        "add_2": "zi de vignolles",
        "cp": 21200,
        "city": "beaune",
        "lng": 4.8640000,
        "lat": 47.0191000,
        "place_type": 1
    },
    {
        "name": "rexel beaune",
        "add_1": "56 route de seurre",
        "add_2": 0,
        "cp": 21200,
        "city": "beaune",
        "lng": 4.8585800,
        "lat": 47.0213000,
        "place_type": 0
    },
    {
        "name": "cgedmathel schiltighe",
        "add_1": "2 rue rene laennec",
        "add_2": "bp 31 za mittelfeld",
        "cp": 67305,
        "city": "schiltigheim cedex",
        "lng": 7.7203300,
        "lat": 48.6118000,
        "place_type": 1
    },
    {
        "name": "rexel strasb nor",
        "add_1": "22 rue des tuileries",
        "add_2": "zac",
        "cp": 67460,
        "city": "souffelweyersheim",
        "lng": 7.7261800,
        "lat": 48.6297000,
        "place_type": 0
    },
    {
        "name": "rexel selestat",
        "add_1": "6 route de bergheim",
        "add_2": "batiment b lot b1b",
        "cp": 67600,
        "city": "selestat",
        "lng": 7.4354200,
        "lat": 48.2540000,
        "place_type": 1
    },
    {
        "name": "yesss beaurepair",
        "add_1": "zone artisanale des epines benites",
        "add_2": 0,
        "cp": 26210,
        "city": "saint sorlin en valloire",
        "lng": 4.9612120,
        "lat": 45.2902035,
        "place_type": 0
    },
    {
        "name": "sct plaisance",
        "add_1": "zone artisanale de la menude",
        "add_2": "rue sadi carnot",
        "cp": 31830,
        "city": "plaisance du touch",
        "lng": 1.2909100,
        "lat": 43.5954000,
        "place_type": 1
    },
    {
        "name": "leissner ludres",
        "add_1": "304 rue du franclos",
        "add_2": "zi du franclos",
        "cp": 54715,
        "city": "ludres cedex",
        "lng": 6.1815100,
        "lat": 48.6233000,
        "place_type": 0
    },
    {
        "name": "rexel nancy nord",
        "add_1": "130 boulevard de finlande",
        "add_2": 0,
        "cp": 54340,
        "city": "pompey",
        "lng": 6.1373900,
        "lat": 48.7823000,
        "place_type": 1
    },
    {
        "name": "btc em nancy",
        "add_1": "allee du paquis",
        "add_2": "zi heillecourt",
        "cp": 54180,
        "city": "heillecourt",
        "lng": 6.2112700,
        "lat": 48.6499000,
        "place_type": 0
    },
    {
        "name": "leissner woippy",
        "add_1": "3 rue du longuenot",
        "add_2": 0,
        "cp": 57140,
        "city": "woippy",
        "lng": 6.1592800,
        "lat": 49.1583000,
        "place_type": 1
    },
    {
        "name": "cged forbach",
        "add_1": "rue robert schumann",
        "add_2": "zi de la heid",
        "cp": 57350,
        "city": "stiring wendel cedex",
        "lng": 6.9260200,
        "lat": 49.1943000,
        "place_type": 0
    },
    {
        "name": "sanelec chaumont",
        "add_1": "zi de la vendue",
        "add_2": "route de neuilly",
        "cp": 52000,
        "city": "chaumont",
        "lng": 5.1459800,
        "lat": 48.0840000,
        "place_type": 1
    },
    {
        "name": "btc em epinal",
        "add_1": "rue de la voivre",
        "add_2": "zone industrielle",
        "cp": 88000,
        "city": "epinal",
        "lng": 6.4567900,
        "lat": 48.2025000,
        "place_type": 0
    },
    {
        "name": "coaxel nancy",
        "add_1": "3 rue du coteau",
        "add_2": "zi nord bp 91",
        "cp": 54180,
        "city": "heillecourt",
        "lng": 6.1824800,
        "lat": 48.6475000,
        "place_type": 1
    },
    {
        "name": "rexel lamaxe",
        "add_1": "8 rue des acacias",
        "add_2": "campus d'activites de la maxe",
        "cp": 57140,
        "city": "la maxe",
        "lng": 6.1844300,
        "lat": 49.1549000,
        "place_type": 0
    },
    {
        "name": "yesss rennes oue",
        "add_1": "zi route de lorient",
        "add_2": "12 rue de la roberdiere",
        "cp": 35000,
        "city": "rennes",
        "lng": -1.6757000,
        "lat": 48.1135000,
        "place_type": 1
    },
    {
        "name": "tereva toulouse u",
        "add_1": "1 avenue de toulouse",
        "add_2": "impasse la caussade",
        "cp": 31240,
        "city": "l  union",
        "lng": 1.4698900,
        "lat": 43.6481000,
        "place_type": 0
    },
    {
        "name": "tereva colomiers",
        "add_1": "34 chemin de la salvetat",
        "add_2": "zi en jacca",
        "cp": 31770,
        "city": "colomiers",
        "lng": 1.3063600,
        "lat": 43.6039000,
        "place_type": 1
    },
    {
        "name": "tereva toulouse l",
        "add_1": "36 bis avenue de larrieu",
        "add_2": 0,
        "cp": 31100,
        "city": "toulouse",
        "lng": 1.4095700,
        "lat": 43.5520000,
        "place_type": 0
    },
    {
        "name": "tereva auch",
        "add_1": "136 route d agen",
        "add_2": 0,
        "cp": 32000,
        "city": "auch",
        "lng": 0.5989800,
        "lat": 43.6604000,
        "place_type": 1
    },
    {
        "name": "tereva cahors",
        "add_1": "chemin riviere de regourd",
        "add_2": 0,
        "cp": 46000,
        "city": "cahors",
        "lng": 1.4268400,
        "lat": 44.4724000,
        "place_type": 0
    },
    {
        "name": "cged nancy",
        "add_1": "3 allee du paquis",
        "add_2": 0,
        "cp": 54180,
        "city": "houdemont",
        "lng": 6.1842500,
        "lat": 48.6455000,
        "place_type": 1
    },
    {
        "name": "electis metzwoippy",
        "add_1": "za val euromoselle sud",
        "add_2": "2 rue du ruisseau",
        "cp": 57140,
        "city": "norroy-le-veneur",
        "lng": 6.1483200,
        "lat": 49.1816000,
        "place_type": 0
    },
    {
        "name": "trapy boulazac",
        "add_1": "av benoit frachon",
        "add_2": "zi de boulazac",
        "cp": 24750,
        "city": "boulazac",
        "lng": 0.7765900,
        "lat": 45.1815000,
        "place_type": 1
    },
    {
        "name": "tereva gray",
        "add_1": "zac de gray sud",
        "add_2": 0,
        "cp": 70100,
        "city": "gray",
        "lng": 5.5736410,
        "lat": 47.4403530,
        "place_type": 0
    },
    {
        "name": "baltzinger haguenau",
        "add_1": "zi de la sandlach",
        "add_2": 0,
        "cp": 67500,
        "city": "haguenau",
        "lng": 7.8169450,
        "lat": 48.7944450,
        "place_type": 1
    },
    {
        "name": "tereva caussade",
        "add_1": "63 av edouard herriot",
        "add_2": 0,
        "cp": 82300,
        "city": "caussade",
        "lng": 1.5279800,
        "lat": 44.1526000,
        "place_type": 0
    },
    {
        "name": "tereva montauban",
        "add_1": "1800 av de l'europe",
        "add_2": "albasud",
        "cp": 82000,
        "city": "montauban",
        "lng": 1.3308500,
        "lat": 43.9846000,
        "place_type": 1
    },
    {
        "name": "tereva castelsarr",
        "add_1": "359 chemin de l'artel",
        "add_2": 0,
        "cp": 82100,
        "city": "castelsarrasin",
        "lng": 1.1006400,
        "lat": 44.0644000,
        "place_type": 0
    },
    {
        "name": "tereva stgirons",
        "add_1": "25 avenue rene plaisant",
        "add_2": 0,
        "cp": 9200,
        "city": "saint girons",
        "lng": 1.1453600,
        "lat": 42.9870000,
        "place_type": 1
    },
    {
        "name": "cged epinal",
        "add_1": "4 rue du pre droue",
        "add_2": 0,
        "cp": 88150,
        "city": "chavelot",
        "lng": 6.4367200,
        "lat": 48.2168000,
        "place_type": 0
    },
    {
        "name": "dupont nancy 97",
        "add_1": "97 avenue du 69 eme ri",
        "add_2": 0,
        "cp": 54270,
        "city": "essey les nancy",
        "lng": 6.2393000,
        "lat": 48.7102000,
        "place_type": 1
    },
    {
        "name": "leissner bischheim",
        "add_1": "5 rue de la vapeur",
        "add_2": 0,
        "cp": 67800,
        "city": "bischheim",
        "lng": 7.7673100,
        "lat": 48.6298000,
        "place_type": 0
    },
    {
        "name": "rexel stdizier",
        "add_1": "8 rue malgras",
        "add_2": "zone industrielle",
        "cp": 52100,
        "city": "saint dizier",
        "lng": 4.9283600,
        "lat": 48.6516000,
        "place_type": 1
    },
    {
        "name": "cged stdizier",
        "add_1": "33 avenue de la loubert",
        "add_2": 0,
        "cp": 52100,
        "city": "st dizier",
        "lng": 4.9601100,
        "lat": 48.6487000,
        "place_type": 0
    },
    {
        "name": "dupont epinal",
        "add_1": "zone industrielle de la voivre",
        "add_2": "7 rue de la voivre",
        "cp": 88000,
        "city": "epinal",
        "lng": 6.4528700,
        "lat": 48.2005000,
        "place_type": 1
    },
    {
        "name": "cged strasbourg",
        "add_1": "2 rue poincare",
        "add_2": 0,
        "cp": 67800,
        "city": "bischheim",
        "lng": 7.7320100,
        "lat": 48.6136000,
        "place_type": 0
    },
    {
        "name": "rexel schiltighe",
        "add_1": "4 rue du chateau d angleterre",
        "add_2": 0,
        "cp": 67300,
        "city": "schiltigheim",
        "lng": 7.7718400,
        "lat": 48.6221000,
        "place_type": 1
    },
    {
        "name": "electis strasbourg",
        "add_1": "3 rue schertz",
        "add_2": 0,
        "cp": 67100,
        "city": "strasbourg",
        "lng": 7.7448900,
        "lat": 48.5568000,
        "place_type": 0
    },
    {
        "name": "sct villen/lot",
        "add_1": "parasol",
        "add_2": "zac",
        "cp": 47300,
        "city": "villeneuve sur lot",
        "lng": 0.7614019,
        "lat": 44.3988761,
        "place_type": 1
    },
    {
        "name": "rexel strasb sud",
        "add_1": "67 rue du pont de peage",
        "add_2": 0,
        "cp": 67118,
        "city": "geispolsheim",
        "lng": 7.7020300,
        "lat": 48.5199000,
        "place_type": 0
    },
    {
        "name": "leissner strasbourg",
        "add_1": "14 rue des freres eberts",
        "add_2": "bp 177",
        "cp": 67025,
        "city": "strasbourg cedex",
        "lng": 7.7412000,
        "lat": 48.5541000,
        "place_type": 1
    },
    {
        "name": "yesss fontenay",
        "add_1": "20 rue kleber",
        "add_2": 0,
        "cp": 85200,
        "city": "fontenay le comte",
        "lng": -0.8001000,
        "lat": 46.4603000,
        "place_type": 0
    },
    {
        "name": "tereva moulins",
        "add_1": "1 rue de montepulciano",
        "add_2": "zone d'activite de l'etoile",
        "cp": 3000,
        "city": "moulins",
        "lng": 3.3391600,
        "lat": 46.5442000,
        "place_type": 1
    },
    {
        "name": "age lentilly",
        "add_1": "zac de charpenay",
        "add_2": 0,
        "cp": 69210,
        "city": "lentilly",
        "lng": 4.6882469,
        "lat": 45.8184720,
        "place_type": 0
    },
    {
        "name": "rexel barleduc",
        "add_1": "z.i.  de popey",
        "add_2": 0,
        "cp": 55000,
        "city": "bar le duc",
        "lng": 5.1856550,
        "lat": 48.7635961,
        "place_type": 1
    },
    {
        "name": "electis wittenheim",
        "add_1": "5 rue du sundgau",
        "add_2": "zi jeune bois - bp 42",
        "cp": 68270,
        "city": "wittenheim",
        "lng": 7.3132500,
        "lat": 47.8194000,
        "place_type": 0
    },
    {
        "name": "rexel wittenheim",
        "add_1": "16 rue de la charente",
        "add_2": "bp 49",
        "cp": 68272,
        "city": "wittenheim cedex",
        "lng": 7.3100400,
        "lat": 47.8069000,
        "place_type": 1
    },
    {
        "name": "yesss thonon",
        "add_1": "3 rue du champ du puits",
        "add_2": 0,
        "cp": 74200,
        "city": "anthy sur leman",
        "lng": 6.4405300,
        "lat": 46.3530000,
        "place_type": 0
    },
    {
        "name": "schmit sai thionville",
        "add_1": "5 rue du maillet - bp no 60099",
        "add_2": "zi du linkling",
        "cp": 57100,
        "city": "thionville",
        "lng": 6.1390900,
        "lat": 49.3541000,
        "place_type": 1
    },
    {
        "name": "dupont ludres",
        "add_1": "75 rue berthollet",
        "add_2": 0,
        "cp": 54710,
        "city": "ludres",
        "lng": 6.1775500,
        "lat": 48.6174000,
        "place_type": 0
    },
    {
        "name": "rexel dijon sud",
        "add_1": "1 bis rue paul langevin",
        "add_2": "zi de chenove - bp 134",
        "cp": 21303,
        "city": "chenove cedex",
        "lng": 5.0169600,
        "lat": 47.2850000,
        "place_type": 1
    },
    {
        "name": "yesss vannes",
        "add_1": "zi du prat",
        "add_2": "avenue edouard michelin",
        "cp": 56037,
        "city": "vannes cedex",
        "lng": -2.7083000,
        "lat": 47.6595000,
        "place_type": 0
    },
    {
        "name": "tereva romans",
        "add_1": "rue jean charcot",
        "add_2": 0,
        "cp": 26100,
        "city": "romans sur isere",
        "lng": 5.0879300,
        "lat": 45.0486000,
        "place_type": 1
    },
    {
        "name": "tereva valence",
        "add_1": "123 avenue des aureats",
        "add_2": "zone industrielle des aureats 117 a",
        "cp": 26000,
        "city": "valence",
        "lng": 4.8836800,
        "lat": 44.8956000,
        "place_type": 0
    },
    {
        "name": "tereva stmarcelli",
        "add_1": "3 rue gabriel bossan",
        "add_2": 0,
        "cp": 38160,
        "city": "saint marcellin",
        "lng": 5.3273300,
        "lat": 45.1426000,
        "place_type": 1
    },
    {
        "name": "rexel epinal",
        "add_1": "8 avenue du rose poirier",
        "add_2": "zic du saut le cerf",
        "cp": 88000,
        "city": "epinal",
        "lng": 6.4651800,
        "lat": 48.1987000,
        "place_type": 0
    },
    {
        "name": "electis epinal",
        "add_1": "17 allee des rapailles",
        "add_2": "zone industrielle de la roche",
        "cp": 88000,
        "city": "epinal",
        "lng": 6.4738400,
        "lat": 48.1852000,
        "place_type": 1
    },
    {
        "name": "rexel thionville",
        "add_1": "8 allee du chateau gassion",
        "add_2": 0,
        "cp": 57100,
        "city": "thionville",
        "lng": 6.1587800,
        "lat": 49.3407000,
        "place_type": 0
    },
    {
        "name": "rexel haguenau",
        "add_1": "18b rue ferme clauss",
        "add_2": 0,
        "cp": 67500,
        "city": "haguenau",
        "lng": 7.7579400,
        "lat": 48.8232000,
        "place_type": 1
    },
    {
        "name": "rexel colmar",
        "add_1": "1 rue curie",
        "add_2": "bp 1407",
        "cp": 68000,
        "city": "colmar",
        "lng": 7.3665800,
        "lat": 48.1082000,
        "place_type": 0
    },
    {
        "name": "cged colmar",
        "add_1": "3 rue joseph gay lussac",
        "add_2": 0,
        "cp": 68000,
        "city": "colmar",
        "lng": 7.3800500,
        "lat": 48.1046000,
        "place_type": 1
    },
    {
        "name": "cged mulhouse",
        "add_1": "zi ile napoleon",
        "add_2": "11 rue de berne",
        "cp": 68110,
        "city": "illzach",
        "lng": 7.3837000,
        "lat": 47.7709000,
        "place_type": 0
    },
    {
        "name": "sct beziers",
        "add_1": "parc d'activités du capiscol",
        "add_2": "20 avenue jean foucault",
        "cp": 34500,
        "city": "beziers",
        "lng": 3.2558000,
        "lat": 43.3315000,
        "place_type": 1
    },
    {
        "name": "lumi metal pontoise",
        "add_1": "09 chaussee jules cesar",
        "add_2": "bat 1 n°118",
        "cp": 95520,
        "city": "osny",
        "lng": 2.0712000,
        "lat": 49.0488000,
        "place_type": 0
    },
    {
        "name": "rexel belleville",
        "add_1": "z.e.i. du wameau",
        "add_2": "rue j.cugnot",
        "cp": 55430,
        "city": "belleville sur meuse",
        "lng": 5.3692900,
        "lat": 49.1841000,
        "place_type": 1
    },
    {
        "name": "baltzinger colmar",
        "add_1": "16 rue curie",
        "add_2": "zone industrielle nord",
        "cp": 68000,
        "city": "colmar",
        "lng": 7.3756600,
        "lat": 48.1073000,
        "place_type": 0
    },
    {
        "name": "baltzinger illzach",
        "add_1": "2 rue jean monnet",
        "add_2": 0,
        "cp": 68270,
        "city": "wittenheim",
        "lng": 7.3121400,
        "lat": 47.8031000,
        "place_type": 1
    },
    {
        "name": "leissner wittenheim",
        "add_1": "10 rue du maine",
        "add_2": 0,
        "cp": 68270,
        "city": "wittenheim",
        "lng": 7.3088100,
        "lat": 47.8112000,
        "place_type": 0
    },
    {
        "name": "rexel nogent/sei",
        "add_1": "avenue canal terray",
        "add_2": "zi",
        "cp": 10400,
        "city": "nogent sur seine",
        "lng": 3.4913800,
        "lat": 48.4885000,
        "place_type": 1
    },
    {
        "name": "comafranc hirtzbach",
        "add_1": "1 a rue du mal de lattre de tassign",
        "add_2": 0,
        "cp": 68118,
        "city": "hirtzbach",
        "lng": 7.2308900,
        "lat": 47.6018000,
        "place_type": 0
    },
    {
        "name": "mabeo annemasse",
        "add_1": "11 rue des buchillons",
        "add_2": 0,
        "cp": 74100,
        "city": "ville la grand",
        "lng": 6.2676300,
        "lat": 46.1994000,
        "place_type": 1
    },
    {
        "name": "btc em thionville",
        "add_1": "17 rue de l'equerre",
        "add_2": "zi du linkling",
        "cp": 57104,
        "city": "thionville",
        "lng": 6.1364200,
        "lat": 49.3547000,
        "place_type": 0
    },
    {
        "name": "electis colmar",
        "add_1": "16 rue des freres lumiere",
        "add_2": 0,
        "cp": 68012,
        "city": "colmar cedex",
        "lng": 7.3740900,
        "lat": 48.1106000,
        "place_type": 1
    },
    {
        "name": "tereva bourgoin",
        "add_1": "11 rue edouard branly",
        "add_2": "za la maladiere",
        "cp": 38300,
        "city": "bourgoin jallieu",
        "lng": 5.2462800,
        "lat": 45.5917000,
        "place_type": 0
    },
    {
        "name": "sanelec lille",
        "add_1": "36 za min",
        "add_2": "2eme avenue",
        "cp": 59465,
        "city": "lomme cedex",
        "lng": 2.9957300,
        "lat": 50.6430000,
        "place_type": 1
    },
    {
        "name": "rexel villenascq",
        "add_1": "14 rue de la cruppe",
        "add_2": "chantier metropole hainaut",
        "cp": 59650,
        "city": "villeneuve d ascq",
        "lng": 3.1204700,
        "lat": 50.6407000,
        "place_type": 0
    },
    {
        "name": "rexel armentiere",
        "add_1": "3 avenue de l'europe",
        "add_2": 0,
        "cp": 59280,
        "city": "armentieres",
        "lng": 2.8716000,
        "lat": 50.6906000,
        "place_type": 1
    },
    {
        "name": "yesss dijon nord",
        "add_1": "agence dijon nord",
        "add_2": "2 rue clement desormes",
        "cp": 21000,
        "city": "dijon",
        "lng": 5.0636900,
        "lat": 47.3385000,
        "place_type": 0
    },
    {
        "name": "rexel montbeliar",
        "add_1": "z.i. technoland - bp 8",
        "add_2": "67 rue des verriers",
        "cp": 25460,
        "city": "etupes cedex",
        "lng": 6.8622100,
        "lat": 47.5116000,
        "place_type": 1
    },
    {
        "name": "sct montauban",
        "add_1": "2 rue voltaire",
        "add_2": 0,
        "cp": 82000,
        "city": "montauban",
        "lng": 1.3739500,
        "lat": 44.0339000,
        "place_type": 0
    },
    {
        "name": "coaxel villeurban",
        "add_1": "35 rue lancon",
        "add_2": 0,
        "cp": 69100,
        "city": "villeurbanne",
        "lng": 4.8954500,
        "lat": 45.7714000,
        "place_type": 1
    },
    {
        "name": "rexel roncq",
        "add_1": "allée des 3 lions",
        "add_2": 0,
        "cp": 59223,
        "city": "roncq",
        "lng": 3.1333600,
        "lat": 50.7445000,
        "place_type": 1
    },
    {
        "name": "rexel dijon nord",
        "add_1": "19 rue de cracovie",
        "add_2": "zae cap nord",
        "cp": 21850,
        "city": "st apollinaire",
        "lng": 5.0736600,
        "lat": 47.3413000,
        "place_type": 0
    },
    {
        "name": "rexel pontarlier",
        "add_1": "12 rue denis papin",
        "add_2": 0,
        "cp": 25300,
        "city": "pontarlier",
        "lng": 6.3379100,
        "lat": 46.9153000,
        "place_type": 1
    },
    {
        "name": "tereva montbeliar",
        "add_1": "38 route d'hericourt",
        "add_2": "cs 29461",
        "cp": 25209,
        "city": "montbeliard cedex",
        "lng": 6.7966800,
        "lat": 47.5197000,
        "place_type": 0
    },
    {
        "name": "comafranc vesoul",
        "add_1": "zone industrielle technologia",
        "add_2": "rue victor dolle",
        "cp": 70000,
        "city": "vesoul",
        "lng": 6.1526700,
        "lat": 47.6391000,
        "place_type": 1
    },
    {
        "name": "cle macon",
        "add_1": "zac des platieres",
        "add_2": "15 rue du 19 mars 1962",
        "cp": 71000,
        "city": "sance",
        "lng": 4.8452400,
        "lat": 46.3332000,
        "place_type": 0
    },
    {
        "name": "cged vendeville",
        "add_1": "22 rue de seclin",
        "add_2": 0,
        "cp": 59175,
        "city": "vendeville",
        "lng": 3.0820900,
        "lat": 50.5766000,
        "place_type": 1
    },
    {
        "name": "btc em pontarlier",
        "add_1": "6 rue denis papin",
        "add_2": "zone industrielle",
        "cp": 25300,
        "city": "pontarlier",
        "lng": 6.3377500,
        "lat": 46.9163000,
        "place_type": 0
    },
    {
        "name": "tereva besancon",
        "add_1": "12 rue auguste jouchoux",
        "add_2": "cs 91989",
        "cp": 25000,
        "city": "besancon",
        "lng": 5.9882800,
        "lat": 47.2379000,
        "place_type": 1
    },
    {
        "name": "rexel besancon",
        "add_1": "rue du valset",
        "add_2": "zone de thise - bp 809",
        "cp": 25220,
        "city": "chalezeule",
        "lng": 6.0585900,
        "lat": 47.2641000,
        "place_type": 0
    },
    {
        "name": "btc em besancon e",
        "add_1": "7 rue du gay",
        "add_2": 0,
        "cp": 25220,
        "city": "chalezeule",
        "lng": 6.0566600,
        "lat": 47.2658000,
        "place_type": 1
    },
    {
        "name": "yesss belfort",
        "add_1": "7 rue georges besse",
        "add_2": "zac de la justice",
        "cp": 90000,
        "city": "belfort",
        "lng": 6.8723100,
        "lat": 47.6403000,
        "place_type": 0
    },
    {
        "name": "yesss montceau",
        "add_1": "rue du chatillon",
        "add_2": "zone artisanale",
        "cp": 71300,
        "city": "montceau les mines",
        "lng": 4.3569200,
        "lat": 46.6889000,
        "place_type": 1
    },
    {
        "name": "crdesfers stgenis",
        "add_1": "rue de la faucille",
        "add_2": "za le marais",
        "cp": 1630,
        "city": "saint genis pouilly",
        "lng": 6.0346800,
        "lat": 46.2740000,
        "place_type": 0
    },
    {
        "name": "comafranc luxeuil",
        "add_1": "zac des 7 chevaux",
        "add_2": 0,
        "cp": 70300,
        "city": "luxeuil les bains",
        "lng": 6.3811110,
        "lat": 47.8168409,
        "place_type": 1
    },
    {
        "name": "yesss cannes",
        "add_1": "zi les tourrades",
        "add_2": "parc du beal",
        "cp": 6150,
        "city": "cannes",
        "lng": 6.9579500,
        "lat": 43.5513000,
        "place_type": 0
    },
    {
        "name": "yesss stbrevin",
        "add_1": "pa de la guerche sud",
        "add_2": "rue gustave eiffel",
        "cp": 44250,
        "city": "st brevin les pins",
        "lng": -2.1527000,
        "lat": 47.2336000,
        "place_type": 1
    },
    {
        "name": "espaceelec lucciana",
        "add_1": "crucetta",
        "add_2": "route de l'aeroport",
        "cp": 20290,
        "city": "lucciana",
        "lng": 9.4772300,
        "lat": 42.5486000,
        "place_type": 0
    },
    {
        "name": "yesss flers",
        "add_1": "9013 rue thimonnier",
        "add_2": 0,
        "cp": 61100,
        "city": "flers",
        "lng": -0.5752000,
        "lat": 48.7291000,
        "place_type": 1
    },
    {
        "name": "coaxel roubaix",
        "add_1": "rue de turgot",
        "add_2": "bp 239",
        "cp": 59100,
        "city": "roubaix cedex",
        "lng": 3.1723800,
        "lat": 50.7051000,
        "place_type": 0
    },
    {
        "name": "cged thouars",
        "add_1": "zaie talancia",
        "add_2": "rue robert schisler",
        "cp": 79100,
        "city": "thouars",
        "lng": -0.1915000,
        "lat": 46.9932000,
        "place_type": 1
    },
    {
        "name": "mabeo etupes",
        "add_1": "25 rue du breuil",
        "add_2": 0,
        "cp": 25460,
        "city": "etupes",
        "lng": 6.8676500,
        "lat": 47.5139000,
        "place_type": 0
    },
    {
        "name": "yesss macon",
        "add_1": "187 rue gustave eiffel",
        "add_2": "parc d'activite macon sud",
        "cp": 71000,
        "city": "macon",
        "lng": 4.8119900,
        "lat": 46.2867000,
        "place_type": 1
    },
    {
        "name": "rexel lecreusot",
        "add_1": "355a bd de l'industrie",
        "add_2": "porte de magenta",
        "cp": 71200,
        "city": "le creusot",
        "lng": 4.4278000,
        "lat": 46.8053000,
        "place_type": 0
    },
    {
        "name": "rexel sens",
        "add_1": "rue de la fontaine d'azon",
        "add_2": 0,
        "cp": 89100,
        "city": "saint clement",
        "lng": 3.2817300,
        "lat": 48.2195000,
        "place_type": 1
    },
    {
        "name": "yesss paris11",
        "add_1": "131 boulevard voltaire",
        "add_2": 0,
        "cp": 75011,
        "city": "paris",
        "lng": 2.3827000,
        "lat": 48.8565000,
        "place_type": 0
    },
    {
        "name": "rexel seclin",
        "add_1": ".rue de la pointe",
        "add_2": 0,
        "cp": 59113,
        "city": "seclin",
        "lng": 3.0376400,
        "lat": 50.5659000,
        "place_type": 1
    },
    {
        "name": "btc em besancon",
        "add_1": "8 rue berthelot",
        "add_2": 0,
        "cp": 25000,
        "city": "besancon",
        "lng": 5.9835900,
        "lat": 47.2362000,
        "place_type": 0
    },
    {
        "name": "coaxel macon",
        "add_1": "102 rue des flandines",
        "add_2": 0,
        "cp": 71000,
        "city": "macon",
        "lng": 4.8167400,
        "lat": 46.2910000,
        "place_type": 1
    },
    {
        "name": "sanelec marcqbaro",
        "add_1": "7 rue de la couture",
        "add_2": "zi de la pilaterie",
        "cp": 59700,
        "city": "marcq en baroeul",
        "lng": 3.1151700,
        "lat": 50.6535000,
        "place_type": 0
    },
    {
        "name": "coaxel arques",
        "add_1": "z.i du lobel",
        "add_2": 0,
        "cp": 62510,
        "city": "arques",
        "lng": 2.3161230,
        "lat": 50.7226500,
        "place_type": 1
    },
    {
        "name": "electis belfort",
        "add_1": "rue gustave lang",
        "add_2": "zac de la justice",
        "cp": 90000,
        "city": "belfort",
        "lng": 6.8761200,
        "lat": 47.6404000,
        "place_type": 0
    },
    {
        "name": "rexel autun",
        "add_1": "58 bis route d'arnay le duc",
        "add_2": 0,
        "cp": 71400,
        "city": "autun",
        "lng": 4.3062700,
        "lat": 46.9714000,
        "place_type": 1
    },
    {
        "name": "yesss millau",
        "add_1": "453 avenue de l'europe",
        "add_2": 0,
        "cp": 12100,
        "city": "millau",
        "lng": 3.0551300,
        "lat": 44.0876000,
        "place_type": 0
    },
    {
        "name": "coaxel le parcq",
        "add_1": "rue du chemin vert",
        "add_2": 0,
        "cp": 62770,
        "city": "le parcq",
        "lng": 2.0950100,
        "lat": 50.3774000,
        "place_type": 1
    },
    {
        "name": "yesss dijon",
        "add_1": "3 rue des freres lumieres",
        "add_2": 0,
        "cp": 21300,
        "city": "chenove",
        "lng": 5.0115800,
        "lat": 47.2833000,
        "place_type": 1
    },
    {
        "name": "cged dijon",
        "add_1": "12 rue de mayence",
        "add_2": "zae cap nord",
        "cp": 21000,
        "city": "dijon",
        "lng": 5.0628700,
        "lat": 47.3455000,
        "place_type": 0
    },
    {
        "name": "cged belfort",
        "add_1": "5 rue albert camus",
        "add_2": "zac de la justice",
        "cp": 90000,
        "city": "belfort",
        "lng": 6.8799400,
        "lat": 47.6419000,
        "place_type": 1
    },
    {
        "name": "yesss lonslesaun",
        "add_1": "10 rue louis rousseau",
        "add_2": 0,
        "cp": 39000,
        "city": "lons le saunier",
        "lng": 5.5572600,
        "lat": 46.6715000,
        "place_type": 0
    },
    {
        "name": "rexel macon",
        "add_1": "chemin de la croix saccard",
        "add_2": 0,
        "cp": 71000,
        "city": "macon",
        "lng": 4.8079700,
        "lat": 46.2832000,
        "place_type": 1
    },
    {
        "name": "yesss sens",
        "add_1": "rue des noues",
        "add_2": 0,
        "cp": 89100,
        "city": "saint clement",
        "lng": 3.2778200,
        "lat": 48.2142000,
        "place_type": 0
    },
    {
        "name": "sisca sidv lannemezan",
        "add_1": "143 route de la barthe",
        "add_2": 0,
        "cp": 65300,
        "city": "lannemezan",
        "lng": 0.3863700,
        "lat": 43.1069000,
        "place_type": 1
    },
    {
        "name": "codep chambery",
        "add_1": "2684 avenue des landiers",
        "add_2": 0,
        "cp": 73000,
        "city": "chambery",
        "lng": 5.8921500,
        "lat": 45.6051000,
        "place_type": 0
    },
    {
        "name": "sanelec bethune",
        "add_1": "avenue george washington",
        "add_2": 0,
        "cp": 62404,
        "city": "bethune cedex",
        "lng": 2.6614900,
        "lat": 50.5376000,
        "place_type": 1
    },
    {
        "name": "coaxel annezin",
        "add_1": "95 rue de stalingrad",
        "add_2": "z.i. b",
        "cp": 62232,
        "city": "annezin",
        "lng": 2.5995400,
        "lat": 50.5347000,
        "place_type": 0
    },
    {
        "name": "rexel bethune",
        "add_1": "av. georges washington",
        "add_2": "z.i. a",
        "cp": 62400,
        "city": "bethune",
        "lng": 2.6614900,
        "lat": 50.5376000,
        "place_type": 1
    },
    {
        "name": "rexel arras",
        "add_1": "zi est",
        "add_2": "2 rue de lisbonne",
        "cp": 62000,
        "city": "arras",
        "lng": 2.8011000,
        "lat": 50.2880000,
        "place_type": 0
    },
    {
        "name": "salentey annezin",
        "add_1": "230 impasse du plat-rio",
        "add_2": "z.i.",
        "cp": 62232,
        "city": "annezin",
        "lng": 2.5965200,
        "lat": 50.5316000,
        "place_type": 1
    },
    {
        "name": "coaxel dijon",
        "add_1": "35 rue de cracovie",
        "add_2": 0,
        "cp": 21850,
        "city": "saint apollinaire",
        "lng": 5.0783400,
        "lat": 47.3431000,
        "place_type": 0
    },
    {
        "name": "comafranc valdahon",
        "add_1": "5 av du gal pierre marie burnez",
        "add_2": 0,
        "cp": 25800,
        "city": "valdahon",
        "lng": 6.3396000,
        "lat": 47.1508000,
        "place_type": 1
    },
    {
        "name": "rexel l'aigle",
        "add_1": "z i no 1",
        "add_2": "z a la fremondiere",
        "cp": 61301,
        "city": "l aigle",
        "lng": 0.6368910,
        "lat": 48.7467700,
        "place_type": 0
    },
    {
        "name": "rexel saverne",
        "add_1": "aa rue baron schouard",
        "add_2": "za zornhoff",
        "cp": 67700,
        "city": "monswiller",
        "lng": 7.3800200,
        "lat": 48.7486000,
        "place_type": 1
    },
    {
        "name": "yesss castelsarr",
        "add_1": "artel est",
        "add_2": "route nationale 113",
        "cp": 82100,
        "city": "castelsarrasin",
        "lng": 1.1033600,
        "lat": 44.0442000,
        "place_type": 0
    },
    {
        "name": "sdme dijon",
        "add_1": "14 rue de mayence",
        "add_2": "bp 77810",
        "cp": 21000,
        "city": "dijon",
        "lng": 5.0629600,
        "lat": 47.3462000,
        "place_type": 1
    },
    {
        "name": "rexel belfort",
        "add_1": "grande rue",
        "add_2": "zone d activite de la varonne",
        "cp": 90400,
        "city": "trevenans",
        "lng": 6.8601200,
        "lat": 47.5765000,
        "place_type": 0
    },
    {
        "name": "btc em belfort",
        "add_1": "18 rue gustave lang/ bp 249",
        "add_2": "z.a.c. de la justice",
        "cp": 90005,
        "city": "belfort cedex",
        "lng": 6.8739900,
        "lat": 47.6402000,
        "place_type": 1
    },
    {
        "name": "yesss chalon/sao",
        "add_1": "rue louis jacques thenard",
        "add_2": "espace thenard",
        "cp": 71100,
        "city": "chalon sur saone",
        "lng": 4.8588100,
        "lat": 46.8072000,
        "place_type": 0
    },
    {
        "name": "rexel chalon/sao",
        "add_1": "rue louis jacques thenard",
        "add_2": "z.i. nord",
        "cp": 71100,
        "city": "chalon sur saone cedex",
        "lng": 4.8588100,
        "lat": 46.8072000,
        "place_type": 1
    },
    {
        "name": "yesss alencon",
        "add_1": "zi nord",
        "add_2": "71 rue lazare carnot",
        "cp": 61250,
        "city": "damigny",
        "lng": 0.0816700,
        "lat": 48.4470000,
        "place_type": 0
    },
    {
        "name": "rubinlacaq dijon",
        "add_1": "30 rue de cracovie",
        "add_2": "zae cap nord",
        "cp": 21074,
        "city": "dijon cedex",
        "lng": 5.0654200,
        "lat": 47.3393000,
        "place_type": 1
    },
    {
        "name": "sdme morbier",
        "add_1": "16 rue europe",
        "add_2": "lieu dit le vallon",
        "cp": 39400,
        "city": "morbier",
        "lng": 6.0174300,
        "lat": 46.5446000,
        "place_type": 0
    },
    {
        "name": "rexel avallon",
        "add_1": "impasse derriere les pres",
        "add_2": "zone industrielle d'avallon",
        "cp": 89200,
        "city": "avallon",
        "lng": 3.9144400,
        "lat": 47.4980000,
        "place_type": 1
    },
    {
        "name": "maillard lemans",
        "add_1": "rue bessemer",
        "add_2": "zi sud",
        "cp": 72100,
        "city": "le mans",
        "lng": 0.1713100,
        "lat": 47.9736000,
        "place_type": 0
    },
    {
        "name": "mabeo bourgbress",
        "add_1": "18 avenue arsene d arsonval",
        "add_2": "cenord",
        "cp": 1000,
        "city": "bourg en bresse",
        "lng": 5.2201500,
        "lat": 46.2214000,
        "place_type": 1
    },
    {
        "name": "yesss narbonne",
        "add_1": "rue joseph cugnot",
        "add_2": "zi croix sud",
        "cp": 11100,
        "city": "narbonne",
        "lng": 2.9843200,
        "lat": 43.1547000,
        "place_type": 0
    },
    {
        "name": "yesss nemours",
        "add_1": "10 bis rue des palis",
        "add_2": "za du rocher vert",
        "cp": 77140,
        "city": "nemours",
        "lng": 2.7182700,
        "lat": 48.2634000,
        "place_type": 1
    },
    {
        "name": "delec toulousese",
        "add_1": "164 route de revel",
        "add_2": 0,
        "cp": 31400,
        "city": "toulouse",
        "lng": 1.4966700,
        "lat": 43.5718000,
        "place_type": 0
    },
    {
        "name": "crdesfers cosne/loir",
        "add_1": "3 route de villechaud",
        "add_2": 0,
        "cp": 58200,
        "city": "cosne cours sur loire",
        "lng": 2.8822500,
        "lat": 47.3418000,
        "place_type": 1
    },
    {
        "name": "coaxel monsenbaro",
        "add_1": "58 rue leon blum",
        "add_2": "zone industrielle de la pilaterie",
        "cp": 59370,
        "city": "mons en baroeul",
        "lng": 3.1091900,
        "lat": 50.6503000,
        "place_type": 0
    },
    {
        "name": "appro brignoles",
        "add_1": "zone artisanale commerciale",
        "add_2": "les consacs",
        "cp": 83170,
        "city": "brignoles",
        "lng": 6.0611870,
        "lat": 43.4065500,
        "place_type": 1
    },
    {
        "name": "sanelec seclin",
        "add_1": "15g  route de lille",
        "add_2": 0,
        "cp": 59113,
        "city": "seclin",
        "lng": 3.0362400,
        "lat": 50.5601000,
        "place_type": 0
    },
    {
        "name": "tereva sarlat",
        "add_1": "madrazes sud",
        "add_2": 0,
        "cp": 24200,
        "city": "sarlat la caneda",
        "lng": 1.2372370,
        "lat": 44.8590230,
        "place_type": 1
    },
    {
        "name": "btc em vesoul",
        "add_1": "z.i. impasse tussilages",
        "add_2": 0,
        "cp": 70000,
        "city": "noidans les vesoul",
        "lng": 6.1314100,
        "lat": 47.6134000,
        "place_type": 0
    },
    {
        "name": "rexel vesoul",
        "add_1": "espace de la motte",
        "add_2": "rn 19",
        "cp": 70000,
        "city": "vesoul",
        "lng": 6.1515600,
        "lat": 47.6374000,
        "place_type": 1
    },
    {
        "name": "dupont vesoul",
        "add_1": "zone technologia",
        "add_2": "rue victor dolle",
        "cp": 70000,
        "city": "vesoul",
        "lng": 6.1526700,
        "lat": 47.6391000,
        "place_type": 0
    },
    {
        "name": "cged chalon/sao",
        "add_1": "16 rue lippman",
        "add_2": 0,
        "cp": 71100,
        "city": "chalon sur saone",
        "lng": 4.8572200,
        "lat": 46.7820000,
        "place_type": 1
    },
    {
        "name": "sdme chalon/sao",
        "add_1": "zone verte",
        "add_2": "b.p. 30",
        "cp": 71880,
        "city": "chatenoy le royal",
        "lng": 4.8290200,
        "lat": 46.7939000,
        "place_type": 0
    },
    {
        "name": "yesss auxerre",
        "add_1": "rue st exupery",
        "add_2": "les terres du canada",
        "cp": 89470,
        "city": "moneteau",
        "lng": 3.5801400,
        "lat": 47.8337000,
        "place_type": 1
    },
    {
        "name": "bfsa balitrand la seyne sur mer",
        "add_1": "830 boulevard de lery",
        "add_2": "zac des playes",
        "cp": 83500,
        "city": "la seyne sur mer",
        "lng": 5.8491700,
        "lat": 43.1149000,
        "place_type": 0
    },
    {
        "name": "sanelec stomer",
        "add_1": "2 route de blendecques",
        "add_2": 0,
        "cp": 62219,
        "city": "longuenesse",
        "lng": 2.2626200,
        "lat": 50.7397000,
        "place_type": 1
    },
    {
        "name": "tereva limoges",
        "add_1": "14 rue henri giffard",
        "add_2": 0,
        "cp": 87280,
        "city": "limoges",
        "lng": 1.2680300,
        "lat": 45.8714000,
        "place_type": 0
    },
    {
        "name": "cged roubaix",
        "add_1": "zone de l'union",
        "add_2": "122 rue de tourcoing-entrée 2",
        "cp": 59100,
        "city": "roubaix",
        "lng": 3.1704800,
        "lat": 50.7054000,
        "place_type": 1
    },
    {
        "name": "dupont bettancour",
        "add_1": "route de bar le duc",
        "add_2": 0,
        "cp": 52100,
        "city": "bettancourt la ferree",
        "lng": 4.9613200,
        "lat": 48.6508000,
        "place_type": 0
    },
    {
        "name": "malrieu muret",
        "add_1": "44 boulevard de joffrery",
        "add_2": "zone industrielle marclan",
        "cp": 31600,
        "city": "muret",
        "lng": 1.3428900,
        "lat": 43.4905000,
        "place_type": 1
    },
    {
        "name": "yesss limonest",
        "add_1": "1111 chemin de la bruyere",
        "add_2": 0,
        "cp": 69760,
        "city": "limonest",
        "lng": 4.7710500,
        "lat": 45.8093000,
        "place_type": 0
    },
    {
        "name": "cged arras",
        "add_1": "62 rue raoul briquet",
        "add_2": 0,
        "cp": 62223,
        "city": "st nicolas les arras",
        "lng": 2.7776600,
        "lat": 50.3054000,
        "place_type": 1
    },
    {
        "name": "coaxel bapaume",
        "add_1": "zi la vallee du bois",
        "add_2": 0,
        "cp": 62450,
        "city": "bapaume",
        "lng": 2.8652490,
        "lat": 50.1075450,
        "place_type": 0
    },
    {
        "name": "sanelec arras",
        "add_1": "rue montgolfier",
        "add_2": "z.i. est",
        "cp": 62000,
        "city": "arras",
        "lng": 2.8038300,
        "lat": 50.2892000,
        "place_type": 1
    },
    {
        "name": "rexel stecath.ar",
        "add_1": "6 d rue du four a chaux",
        "add_2": "za le pacage",
        "cp": 62223,
        "city": "sainte catherine les arras",
        "lng": 2.7635300,
        "lat": 50.3049000,
        "place_type": 0
    },